timestamp,TimeUS,I,Status,GMS,GWk,NSats,HDop,Lat,Lng,Alt,Spd,GCrs,VZ,Yaw,U
1691585359.4,14402084,0,3,305377400,2274,19,0.62,51.6417309,-2.5256133,11.58,0.03200000151991844,0.0,0.07300000637769699,0.0,1
1691585359.580162,14582246,0,3,305377600,2274,19,0.62,51.6417308,-2.5256135,11.56,0.05100000277161598,0.0,0.010000000707805157,0.0,1
1691585359.781199,14783283,0,3,305377800,2274,19,0.62,51.6417308,-2.5256137,11.56,0.017000000923871994,0.0,0.024000000208616257,0.0,1
1691585360.001089,15003173,0,3,305378000,2274,19,0.62,51.6417307,-2.5256138,11.55,0.005000000353902578,0.0,0.09800000488758087,0.0,1
1691585360.201051,15203135,0,3,305378200,2274,19,0.62,51.6417307,-2.525614,11.54,0.014000000432133675,0.0,0.03500000014901161,0.0,1
1691585360.401057,15403141,0,3,305378400,2274,19,0.62,51.6417307,-2.5256141,11.54,0.026000000536441803,0.0,0.0650000050663948,0.0,1
1691585360.582036,15584120,0,3,305378600,2274,19,0.62,51.6417306,-2.5256143,11.54,0.005000000353902578,0.0,0.020000001415610313,0.0,1
1691585360.782327,15784411,0,3,305378800,2274,19,0.62,51.6417306,-2.5256144,11.53,0.023000001907348633,0.0,0.08700000494718552,0.0,1
1691585360.982274,15984358,0,3,305379000,2274,19,0.62,51.6417306,-2.5256146,11.52,0.0430000014603138,0.0,0.08900000154972076,0.0,1
1691585361.182168,16184252,0,3,305379200,2274,19,0.62,51.6417305,-2.5256147,11.51,0.01900000125169754,0.0,0.04100000113248825,0.0,1
1691585361.382155,16384239,0,3,305379400,2274,19,0.62,51.6417305,-2.5256148,11.51,0.0020000000949949026,0.0,0.04400000348687172,0.0,1
1691585361.582182,16584266,0,3,305379600,2274,19,0.62,51.6417305,-2.525615,11.5,0.03800000250339508,0.0,0.032999999821186066,0.0,1
1691585361.782274,16784358,0,3,305379800,2274,19,0.62,51.6417305,-2.5256152,11.5,0.004000000189989805,0.0,0.004000000189989805,0.0,1
1691585362.002092,17004176,0,3,305380000,2274,19,0.62,51.6417305,-2.5256153,11.5,0.015000000596046448,0.0,0.10500000417232513,0.0,1
1691585362.18217,17184254,0,3,305380200,2274,19,0.62,51.6417304,-2.5256154,11.47,0.03800000250339508,0.0,0.0860000029206276,0.0,1
1691585362.402022,17404106,0,3,305380400,2274,19,0.62,51.6417304,-2.5256155,11.45,0.009000000543892384,0.0,0.09200000762939453,0.0,1
1691585362.601996,17604080,0,3,305380600,2274,19,0.62,51.6417304,-2.5256156,11.42,0.02500000037252903,0.0,0.02500000037252903,0.0,1
1691585362.80217,17804254,0,3,305380800,2274,19,0.62,51.6417304,-2.5256157,11.41,0.04400000348687172,0.0,0.13600000739097595,0.0,1
1691585362.982656,17984740,0,3,305381000,2274,19,0.62,51.6417304,-2.5256157,11.39,0.018000001087784767,0.0,0.017000000923871994,0.0,1
1691585363.18265,18184734,0,3,305381200,2274,19,0.62,51.6417304,-2.5256158,11.39,0.09800000488758087,0.0,0.05100000277161598,0.0,1
1691585363.382691,18384775,0,3,305381400,2274,19,0.62,51.6417304,-2.5256159,11.37,0.09100000560283661,0.0,-0.007000000216066837,0.0,1
1691585363.582562,18584646,0,3,305381600,2274,19,0.62,51.6417305,-2.5256159,11.35,0.04500000178813934,0.0,0.05300000309944153,0.0,1
1691585363.782773,18784857,0,3,305381800,2274,19,0.62,51.6417304,-2.5256158,11.34,0.11100000888109207,0.0,0.017000000923871994,0.0,1
1691585364.0020149,19004099,0,3,305382000,2274,19,0.62,51.6417304,-2.5256158,11.34,0.05900000408291817,0.0,-0.09200000762939453,0.0,1
1691585364.182678,19184762,0,3,305382200,2274,19,0.62,51.6417305,-2.5256157,11.34,0.08800000697374344,0.0,0.07300000637769699,0.0,1
1691585364.38268,19384764,0,3,305382400,2274,19,0.62,51.6417305,-2.5256158,11.31,0.06200000271201134,0.0,0.04700000211596489,0.0,1
1691585364.582689,19584773,0,3,305382600,2274,19,0.62,51.6417304,-2.5256159,11.3,0.039000000804662704,0.0,0.06300000101327896,0.0,1
1691585364.7827709,19784855,0,3,305382800,2274,19,0.62,51.6417303,-2.525616,11.3,0.08900000154972076,0.0,-0.006000000052154064,0.0,1
1691585364.982589,19984673,0,3,305383000,2274,19,0.62,51.6417302,-2.5256162,11.29,0.03800000250339508,0.0,-0.04800000041723251,0.0,1
1691585365.182659,20184743,0,3,305383200,2274,19,0.62,51.6417301,-2.5256164,11.27,0.020000001415610313,0.0,-0.004000000189989805,0.0,1
1691585365.382663,20384747,0,3,305383400,2274,19,0.62,51.6417301,-2.5256165,11.27,0.032999999821186066,0.0,0.02800000086426735,0.0,1
1691585365.60203,20604114,0,3,305383600,2274,19,0.62,51.6417302,-2.5256164,11.27,0.04400000348687172,0.0,0.02500000037252903,0.0,1
1691585365.802514,20804598,0,3,305383800,2274,19,0.62,51.6417302,-2.5256163,11.26,0.024000000208616257,0.0,0.04800000041723251,0.0,1
1691585366.002014,21004098,0,3,305384000,2274,19,0.62,51.6417302,-2.5256164,11.25,0.03400000184774399,0.0,0.017000000923871994,0.0,1
1691585366.182639,21184723,0,3,305384200,2274,19,0.62,51.6417302,-2.5256165,11.24,0.058000002056360245,0.0,0.04800000041723251,0.0,1
1691585366.401968,21404052,0,3,305384400,2274,19,0.62,51.6417302,-2.5256167,11.22,0.03100000135600567,0.0,0.04700000211596489,0.0,1
1691585366.582678,21584762,0,3,305384600,2274,19,0.62,51.6417303,-2.5256167,11.21,0.004000000189989805,0.0,0.03700000047683716,0.0,1
1691585366.782774,21784858,0,3,305384800,2274,19,0.62,51.6417302,-2.5256169,11.19,0.01900000125169754,0.0,0.04100000113248825,0.0,1
1691585366.982678,21984762,0,3,305385000,2274,19,0.62,51.6417301,-2.525617,11.18,0.07700000703334808,0.0,0.007000000216066837,0.0,1
1691585367.18268,22184764,0,3,305385200,2274,19,0.62,51.6417301,-2.5256172,11.17,0.03100000135600567,0.0,0.023000001907348633,0.0,1
1691585367.382685,22384769,0,3,305385400,2274,19,0.62,51.64173,-2.5256174,11.16,0.055000003427267075,0.0,0.058000002056360245,0.0,1
1691585367.5826719,22584756,0,3,305385600,2274,19,0.62,51.64173,-2.5256176,11.15,0.03400000184774399,0.0,0.00800000037997961,0.0,1
1691585367.782783,22784867,0,3,305385800,2274,19,0.62,51.6417299,-2.5256178,11.13,0.026000000536441803,0.0,0.024000000208616257,0.0,1
1691585368.002073,23004157,0,3,305386000,2274,19,0.62,51.6417299,-2.525618,11.11,0.01600000075995922,0.0,0.05400000140070915,0.0,1
1691585368.18268,23184764,0,3,305386200,2274,18,0.64,51.6417298,-2.5256182,11.09,0.03800000250339508,0.0,0.08300000429153442,0.0,1
1691585368.382668,23384752,0,3,305386400,2274,19,0.62,51.6417298,-2.5256185,11.08,0.02500000037252903,0.0,0.013000000268220901,0.0,1
1691585368.5826619,23584746,0,3,305386600,2274,19,0.62,51.6417298,-2.5256186,11.06,0.032999999821186066,0.0,0.06100000441074371,0.0,1
1691585368.782797,23784881,0,3,305386800,2274,19,0.62,51.6417297,-2.5256188,11.03,0.03400000184774399,0.0,-0.01600000075995922,0.0,1
1691585368.982675,23984759,0,3,305387000,2274,19,0.62,51.6417298,-2.5256189,11.02,0.023000001907348633,0.0,0.05400000140070915,0.0,1
1691585369.18269,24184774,0,3,305387200,2274,19,0.62,51.6417297,-2.5256192,10.99,0.01600000075995922,0.0,0.023000001907348633,0.0,1
1691585369.382692,24384776,0,3,305387400,2274,19,0.62,51.6417297,-2.5256194,10.98,0.046000003814697266,0.0,-0.004000000189989805,0.0,1
1691585369.582664,24584748,0,3,305387600,2274,19,0.62,51.6417296,-2.5256196,10.96,0.039000000804662704,0.0,0.10000000149011612,0.0,1
1691585369.782786,24784870,0,3,305387800,2274,19,0.62,51.6417296,-2.5256198,10.94,0.01100000087171793,0.0,-0.012000000104308128,0.0,1
1691585370.002049,25004133,0,3,305388000,2274,19,0.62,51.6417295,-2.5256199,10.93,0.013000000268220901,0.0,0.0430000014603138,0.0,1
1691585370.18268,25184764,0,3,305388200,2274,19,0.62,51.6417295,-2.5256201,10.92,0.020000001415610313,0.0,0.03800000250339508,0.0,1
1691585370.402073,25404157,0,3,305388400,2274,19,0.62,51.6417295,-2.5256202,10.92,0.027000000700354576,0.0,0.03100000135600567,0.0,1
1691585370.582682,25584766,0,3,305388600,2274,19,0.62,51.6417295,-2.5256203,10.91,0.036000002175569534,0.0,-0.012000000104308128,0.0,1
1691585370.782791,25784875,0,3,305388800,2274,19,0.62,51.6417295,-2.5256205,10.9,0.05100000277161598,0.0,0.030000001192092896,0.0,1
1691585370.98267,25984754,0,3,305389000,2274,19,0.62,51.6417296,-2.5256207,10.89,0.027000000700354576,0.0,0.01600000075995922,0.0,1
1691585371.182683,26184767,0,3,305389200,2274,19,0.62,51.6417296,-2.5256209,10.88,0.04200000315904617,0.0,0.02800000086426735,0.0,1
1691585371.382547,26384631,0,3,305389400,2274,19,0.62,51.6417295,-2.5256211,10.87,0.055000003427267075,0.0,0.0560000017285347,0.0,1
1691585371.582657,26584741,0,3,305389600,2274,19,0.62,51.6417295,-2.5256213,10.86,0.032999999821186066,0.0,0.014000000432133675,0.0,1
1691585371.78279,26784874,0,3,305389800,2274,19,0.62,51.6417295,-2.5256214,10.84,0.01900000125169754,0.0,0.04800000041723251,0.0,1
1691585372.002067,27004151,0,3,305390000,2274,19,0.62,51.6417295,-2.5256215,10.82,0.02500000037252903,0.0,0.05300000309944153,0.0,1
1691585372.182664,27184748,0,3,305390200,2274,19,0.62,51.6417295,-2.5256217,10.81,0.04400000348687172,0.0,0.07700000703334808,0.0,1
1691585372.382675,27384759,0,3,305390400,2274,19,0.62,51.6417295,-2.5256219,10.79,0.039000000804662704,0.0,0.0650000050663948,0.0,1
1691585372.582601,27584685,0,3,305390600,2274,19,0.62,51.6417295,-2.5256221,10.77,0.06200000271201134,0.0,0.04400000348687172,0.0,1
1691585372.782773,27784857,0,3,305390800,2274,19,0.62,51.6417296,-2.5256223,10.74,0.01600000075995922,0.0,0.08400000631809235,0.0,1
1691585372.982665,27984749,0,3,305391000,2274,19,0.62,51.6417296,-2.5256224,10.73,0.02200000174343586,0.0,0.08000000566244125,0.0,1
1691585373.182684,28184768,0,3,305391200,2274,19,0.62,51.6417295,-2.5256225,10.72,0.015000000596046448,0.0,-0.02200000174343586,0.0,1
1691585373.462663,28464747,0,3,305391400,2274,19,0.62,51.6417295,-2.5256226,10.71,0.014000000432133675,0.0,0.029000001028180122,0.0,1
1691585373.7827709,28784855,0,3,305391800,2274,19,0.62,51.6417296,-2.5256227,10.69,0.01100000087171793,0.0,0.04800000041723251,0.0,1
1691585373.982691,28984775,0,3,305392000,2274,19,0.62,51.6417296,-2.5256229,10.7,0.055000003427267075,0.0,0.013000000268220901,0.0,1
1691585374.182688,29184772,0,3,305392200,2274,19,0.62,51.6417296,-2.5256231,10.69,0.055000003427267075,0.0,0.03700000047683716,0.0,1
1691585374.382664,29384748,0,3,305392400,2274,19,0.62,51.6417296,-2.5256234,10.66,0.06400000303983688,0.0,0.04800000041723251,0.0,1
1691585374.582681,29584765,0,3,305392600,2274,19,0.62,51.6417297,-2.5256235,10.66,0.0690000057220459,0.0,-0.04400000348687172,0.0,1
1691585374.782772,29784856,0,3,305392800,2274,19,0.62,51.6417297,-2.5256237,10.65,0.03500000014901161,0.0,0.0020000000949949026,0.0,1
1691585374.982694,29984778,0,3,305393000,2274,19,0.62,51.6417298,-2.5256238,10.64,0.012000000104308128,0.0,0.04100000113248825,0.0,1
1691585375.182656,30184740,0,3,305393200,2274,19,0.62,51.6417299,-2.525624,10.64,0.20400001108646393,331.75994873046875,-0.08300000429153442,0.0,1
1691585375.382667,30384751,0,3,305393400,2274,19,0.62,51.6417302,-2.5256245,10.65,0.22100001573562622,320.6367492675781,-0.06300000101327896,0.0,1
1691585375.582677,30584761,0,3,305393600,2274,19,0.62,51.6417304,-2.5256254,10.64,0.4230000078678131,283.3320007324219,0.01900000125169754,0.0,1
1691585375.782702,30784786,0,3,305393800,2274,19,0.62,51.6417305,-2.5256264,10.66,0.24900001287460327,281.70977783203125,0.015000000596046448,0.0,1
1691585376.002061,31004145,0,3,305394000,2274,19,0.62,51.6417306,-2.5256275,10.64,0.4750000238418579,274.66644287109375,0.05900000408291817,0.0,1
1691585376.18264,31184724,0,3,305394200,2274,19,0.62,51.6417307,-2.5256288,10.63,0.4350000321865082,278.130126953125,0.012000000104308128,0.0,1
1691585376.382632,31384716,0,3,305394400,2274,19,0.62,51.6417308,-2.5256301,10.61,0.4300000071525574,273.57354736328125,0.03400000184774399,0.0,1
1691585376.582671,31584755,0,3,305394600,2274,19,0.62,51.6417308,-2.5256312,10.59,0.3270000219345093,273.42767333984375,0.02500000037252903,0.0,1
1691585376.782656,31784740,0,3,305394800,2274,19,0.62,51.6417308,-2.5256322,10.56,0.32200002670288086,265.48614501953125,0.07000000029802322,0.0,1
1691585376.982655,31984739,0,3,305395000,2274,19,0.62,51.6417307,-2.5256329,10.56,0.15700000524520874,263.13494873046875,-0.06700000166893005,0.0,1
1691585377.202036,32204120,0,3,305395200,2274,19,0.62,51.6417306,-2.5256334,10.56,0.23800000548362732,259.8676452636719,0.03800000250339508,0.0,1
1691585377.382675,32384759,0,3,305395400,2274,19,0.62,51.6417304,-2.5256339,10.55,0.22200001776218414,235.59063720703125,0.1080000028014183,0.0,1
1691585377.582602,32584686,0,3,305395600,2274,19,0.62,51.6417301,-2.5256342,10.54,0.1900000125169754,228.53189086914062,-0.004000000189989805,0.0,1
1691585377.782762,32784846,0,3,305395800,2274,19,0.62,51.6417299,-2.5256346,10.54,0.18700000643730164,229.9032745361328,-0.021000001579523087,0.0,1
1691585378.001967,33004051,0,3,305396000,2274,19,0.62,51.6417296,-2.5256348,10.52,0.2630000114440918,201.1416015625,0.0,0.0,1
1691585378.182591,33184675,0,3,305396200,2274,19,0.62,51.6417289,-2.525635,10.49,0.46700000762939453,186.5899200439453,0.017000000923871994,0.0,1
1691585378.3826,33384684,0,3,305396400,2274,19,0.62,51.6417281,-2.5256353,10.46,0.5100000500679016,193.71743774414062,0.09200000762939453,0.0,1
1691585378.582587,33584671,0,3,305396600,2274,19,0.62,51.6417274,-2.5256356,10.48,0.3890000283718109,191.8888397216797,0.06700000166893005,0.0,1
1691585378.782695,33784779,0,3,305396800,2274,19,0.62,51.6417266,-2.5256363,10.43,0.6350000500679016,205.50823974609375,0.10900000482797623,0.0,1
1691585378.982711,33984795,0,3,305397000,2274,19,0.62,51.6417256,-2.5256372,10.4,0.7220000624656677,205.08126831054688,-0.09800000488758087,0.0,1
1691585379.18257,34184654,0,3,305397200,2274,19,0.62,51.6417247,-2.5256385,10.38,0.753000020980835,220.85267639160156,0.04200000315904617,0.0,1
1691585379.3827689,34384853,0,3,305397400,2274,19,0.62,51.6417236,-2.5256402,10.37,0.89000004529953,216.4518585205078,-0.10200000554323196,0.0,1
1691585379.582644,34584728,0,3,305397600,2274,19,0.62,51.6417221,-2.5256421,10.35,1.25600004196167,217.94595336914062,0.049000002443790436,0.0,1
1691585379.782751,34784835,0,3,305397800,2274,19,0.62,51.6417205,-2.5256445,10.31,1.1380000114440918,221.73626708984375,0.1420000046491623,0.0,1
1691585380.002057,35004141,0,3,305398000,2274,19,0.62,51.6417191,-2.5256472,10.3,1.2480000257492065,227.1393585205078,-0.16700001060962677,0.0,1
1691585380.182619,35184703,0,3,305398200,2274,19,0.62,51.6417178,-2.5256504,10.29,1.3350000381469727,232.95115661621094,-0.04800000041723251,0.0,1
1691585380.382652,35384736,0,3,305398400,2274,19,0.62,51.6417166,-2.5256537,10.25,1.2360000610351562,236.50759887695312,0.14000000059604645,0.0,1
1691585380.582592,35584676,0,3,305398600,2274,19,0.62,51.6417154,-2.525657,10.23,1.4230000972747803,237.7190704345703,-0.06000000238418579,0.0,1
1691585380.782749,35784833,0,3,305398800,2274,19,0.62,51.6417142,-2.5256606,10.21,1.3830000162124634,239.6428680419922,0.0010000000474974513,0.0,1
1691585380.982647,35984731,0,3,305399000,2274,19,0.62,51.641713,-2.5256639,10.18,1.2750000953674316,237.9576873779297,0.14800000190734863,0.0,1
1691585381.182648,36184732,0,3,305399200,2274,19,0.62,51.6417116,-2.5256673,10.16,1.4810000658035278,237.53359985351562,-0.10100000351667404,0.0,1
1691585381.382684,36384768,0,3,305399400,2274,19,0.62,51.6417102,-2.5256708,10.14,1.377000093460083,237.6295928955078,0.020000001415610313,0.0,1
1691585381.582647,36584731,0,3,305399600,2274,19,0.62,51.6417088,-2.5256739,10.13,1.2880001068115234,234.9027099609375,-0.027000000700354576,0.0,1
1691585381.782665,36784749,0,3,305399800,2274,19,0.62,51.6417072,-2.5256775,10.11,1.6530001163482666,236.3763885498047,0.021000001579523087,0.0,1
1691585382.002053,37004137,0,3,305400000,2274,19,0.62,51.6417057,-2.5256809,10.09,1.2910000085830688,233.52967834472656,0.09800000488758087,0.0,1
1691585382.182652,37184736,0,3,305400200,2274,19,0.62,51.6417042,-2.5256837,10.05,1.3160001039505005,232.5119171142578,0.049000002443790436,0.0,1
1691585382.382664,37384748,0,3,305400400,2274,19,0.62,51.6417026,-2.525687,10.03,1.5890001058578491,231.91323852539062,-0.039000000804662704,0.0,1
1691585382.582604,37584688,0,3,305400600,2274,19,0.62,51.641701,-2.5256903,10.02,1.2650001049041748,232.43528747558594,-0.032999999821186066,0.0,1
1691585382.782741,37784825,0,3,305400800,2274,19,0.62,51.6416994,-2.525693,10.02,1.3980001211166382,226.5535888671875,0.026000000536441803,0.0,1
1691585382.982618,37984702,0,3,305401000,2274,19,0.62,51.6416974,-2.525696,10.0,1.565000057220459,224.47274780273438,-0.12400000542402267,0.0,1
1691585383.182654,38184738,0,3,305401200,2274,19,0.62,51.6416955,-2.5256988,9.98,1.3030000925064087,223.57379150390625,0.1210000067949295,0.0,1
1691585383.38267,38384754,0,3,305401400,2274,19,0.62,51.6416936,-2.5257012,9.93,1.380000114440918,218.22158813476562,0.0560000017285347,0.0,1
1691585383.5825949,38584679,0,3,305401600,2274,19,0.62,51.6416916,-2.5257038,9.9,1.4980000257492065,219.5771484375,0.04200000315904617,0.0,1
1691585383.782706,38784790,0,3,305401800,2274,19,0.62,51.6416896,-2.5257063,9.86,1.2410000562667847,217.37802124023438,0.0690000057220459,0.0,1
1691585384.0020769,39004161,0,3,305402000,2274,19,0.62,51.6416876,-2.5257084,9.84,1.3750001192092896,214.0050506591797,-0.039000000804662704,0.0,1
1691585384.182597,39184681,0,3,305402200,2274,19,0.62,51.6416856,-2.5257105,9.81,1.3690000772476196,213.01776123046875,0.03500000014901161,0.0,1
1691585384.382675,39384759,0,3,305402400,2274,19,0.62,51.6416837,-2.5257123,9.78,1.0760000944137573,211.33555603027344,0.039000000804662704,0.0,1
1691585384.582592,39584676,0,3,305402600,2274,19,0.62,51.6416819,-2.5257141,9.77,1.3390001058578491,212.7214813232422,-0.07100000232458115,0.0,1
1691585384.78268,39784764,0,3,305402800,2274,19,0.62,51.64168,-2.525716,9.74,1.1420000791549683,209.9473876953125,-0.06300000101327896,0.0,1
1691585384.9826,39984684,0,3,305403000,2274,19,0.62,51.6416783,-2.5257178,9.69,1.031000018119812,214.80279541015625,0.15000000596046448,0.0,1
1691585385.182697,40184781,0,3,305403200,2274,19,0.62,51.6416769,-2.5257195,9.65,0.9600000381469727,212.40740966796875,0.020000001415610313,0.0,1
1691585385.382665,40384749,0,3,305403400,2274,19,0.62,51.6416754,-2.5257212,9.62,1.031000018119812,215.31224060058594,-0.036000002175569534,0.0,1
1691585385.582599,40584683,0,3,305403600,2274,19,0.62,51.6416742,-2.525723,9.59,0.8800000548362732,218.4445343017578,0.20600001513957977,0.0,1
1691585385.802068,40804152,0,3,305403800,2274,19,0.62,51.6416732,-2.5257246,9.56,0.7010000348091125,222.0179901123047,0.030000001192092896,0.0,1
1691585386.002079,41004163,0,3,305404000,2274,19,0.62,51.6416722,-2.5257264,9.54,0.9270000457763672,226.13250732421875,-0.007000000216066837,0.0,1
1691585386.201846,41203930,0,3,305404200,2274,19,0.62,51.6416713,-2.5257286,9.51,0.815000057220459,232.8745880126953,-0.00800000037997961,0.0,1
1691585386.382639,41384723,0,3,305404400,2274,19,0.62,51.6416706,-2.5257304,9.5,0.7150000333786011,231.58529663085938,0.04100000113248825,0.0,1
1691585386.602075,41604159,0,3,305404600,2274,19,0.62,51.6416699,-2.5257321,9.5,0.6500000357627869,237.0443115234375,-0.20200000703334808,0.0,1
1691585386.782698,41784782,0,3,305404800,2274,19,0.62,51.6416692,-2.525734,9.49,0.8750000596046448,236.48056030273438,0.06100000441074371,0.0,1
1691585386.982666,41984750,0,3,305405000,2274,19,0.62,51.6416686,-2.5257358,9.46,0.5540000200271606,239.4813995361328,0.007000000216066837,0.0,1
1691585387.182652,42184736,0,3,305405200,2274,19,0.62,51.6416683,-2.5257371,9.45,0.36900001764297485,240.3300323486328,-0.00800000037997961,0.0,1
1691585387.401803,42403887,0,3,305405400,2274,19,0.62,51.6416681,-2.5257379,9.44,0.2720000147819519,246.18939208984375,-0.007000000216066837,0.0,1
1691585387.58266,42584744,0,3,305405600,2274,19,0.62,51.6416682,-2.5257384,9.44,0.12200000882148743,246.18939208984375,-0.06599999964237213,0.0,1
1691585387.782662,42784746,0,3,305405800,2274,19,0.62,51.6416682,-2.5257391,9.42,0.36500000953674316,252.87673950195312,0.10600000619888306,0.0,1
1691585388.021995,43024079,0,3,305406000,2274,19,0.62,51.6416682,-2.5257399,9.4,0.19700001180171967,260.2726745605469,-0.020000001415610313,0.0,1
1691585388.182685,43184769,0,3,305406200,2274,19,0.62,51.6416683,-2.5257401,9.38,0.023000001907348633,260.2726745605469,0.09000000357627869,0.0,1
1691585388.382595,43384679,0,3,305406400,2274,19,0.62,51.6416683,-2.5257401,9.34,0.029000001028180122,260.2726745605469,0.06300000101327896,0.0,1
1691585388.582681,43584765,0,3,305406600,2274,19,0.62,51.6416685,-2.5257398,9.33,0.19200000166893005,322.5641174316406,0.0020000000949949026,0.0,1
1691585388.782698,43784782,0,3,305406800,2274,19,0.62,51.6416687,-2.5257391,9.3,0.34800001978874207,44.26054000854492,0.06700000166893005,0.0,1
1691585388.982688,43984772,0,3,305407000,2274,19,0.62,51.6416689,-2.5257385,9.28,0.10600000619888306,44.26054000854492,0.08100000023841858,0.0,1
1691585389.182661,44184745,0,3,305407200,2274,19,0.62,51.641669,-2.5257384,9.26,0.0650000050663948,44.26054000854492,-0.023000001907348633,0.0,1
1691585389.382669,44384753,0,3,305407400,2274,19,0.62,51.641669,-2.5257386,9.25,0.09600000083446503,44.26054000854492,0.01600000075995922,0.0,1
1691585389.582596,44584680,0,3,305407600,2274,19,0.62,51.6416689,-2.5257387,9.24,0.026000000536441803,44.26054000854492,-0.007000000216066837,0.0,1
1691585389.78276,44784844,0,3,305407800,2274,19,0.62,51.641669,-2.5257385,9.22,0.09200000762939453,44.26054000854492,0.0560000017285347,0.0,1
1691585390.002141,45004225,0,3,305408000,2274,19,0.62,51.6416692,-2.5257382,9.21,0.11600000411272049,44.26054000854492,0.09200000762939453,0.0,1
1691585390.182656,45184740,0,3,305408200,2274,19,0.62,51.6416692,-2.5257382,9.19,0.10400000214576721,44.26054000854492,0.04200000315904617,0.0,1
1691585390.382643,45384727,0,3,305408400,2274,19,0.62,51.6416692,-2.5257384,9.16,0.10500000417232513,44.26054000854492,0.0010000000474974513,0.0,1
1691585390.582656,45584740,0,3,305408600,2274,19,0.62,51.6416691,-2.5257385,9.16,0.04000000283122063,44.26054000854492,0.04700000211596489,0.0,1
1691585390.802051,45804135,0,3,305408800,2274,19,0.62,51.6416691,-2.5257385,9.15,0.01600000075995922,44.26054000854492,0.026000000536441803,0.0,1
1691585390.982653,45984737,0,3,305409000,2274,19,0.62,51.6416691,-2.5257384,9.14,0.01600000075995922,44.26054000854492,0.04100000113248825,0.0,1
1691585391.182662,46184746,0,3,305409200,2274,19,0.62,51.6416692,-2.5257384,9.14,0.029000001028180122,44.26054000854492,0.023000001907348633,0.0,1
1691585391.382664,46384748,0,3,305409400,2274,19,0.62,51.6416692,-2.5257384,9.11,0.032999999821186066,44.26054000854492,-0.03800000250339508,0.0,1
1691585391.582638,46584722,0,3,305409600,2274,19,0.62,51.6416692,-2.5257383,9.11,0.015000000596046448,44.26054000854492,0.04100000113248825,0.0,1
1691585391.782724,46784808,0,3,305409800,2274,19,0.62,51.6416693,-2.5257383,9.1,0.013000000268220901,44.26054000854492,0.010000000707805157,0.0,1
1691585392.002144,47004228,0,3,305410000,2274,19,0.62,51.6416693,-2.5257383,9.09,0.039000000804662704,44.26054000854492,0.027000000700354576,0.0,1
1691585392.182659,47184743,0,3,305410200,2274,19,0.62,51.6416694,-2.5257383,9.09,0.00800000037997961,44.26054000854492,0.015000000596046448,0.0,1
1691585392.3826659,47384750,0,3,305410400,2274,19,0.62,51.6416694,-2.5257382,9.08,0.012000000104308128,44.26054000854492,0.018000001087784767,0.0,1
1691585392.582652,47584736,0,3,305410600,2274,19,0.62,51.6416694,-2.5257382,9.08,0.014000000432133675,44.26054000854492,0.004000000189989805,0.0,1
1691585392.782686,47784770,0,3,305410800,2274,19,0.62,51.6416694,-2.5257382,9.07,0.02800000086426735,44.26054000854492,-0.015000000596046448,0.0,1
1691585392.982746,47984830,0,3,305411000,2274,19,0.62,51.6416695,-2.5257381,9.07,0.015000000596046448,44.26054000854492,0.04800000041723251,0.0,1
1691585393.1826649,48184749,0,3,305411200,2274,19,0.62,51.6416695,-2.5257381,9.05,0.01900000125169754,44.26054000854492,0.017000000923871994,0.0,1
1691585393.401853,48403937,0,3,305411400,2274,19,0.62,51.6416695,-2.525738,9.04,0.01900000125169754,44.26054000854492,0.04400000348687172,0.0,1
1691585393.601922,48604006,0,3,305411600,2274,19,0.62,51.6416696,-2.525738,9.04,0.023000001907348633,44.26054000854492,0.06000000238418579,0.0,1
1691585393.782703,48784787,0,3,305411800,2274,19,0.62,51.6416695,-2.525738,9.03,0.01600000075995922,44.26054000854492,-0.00800000037997961,0.0,1
1691585394.022026,49024110,0,3,305412000,2274,19,0.62,51.6416696,-2.5257379,9.03,0.02200000174343586,44.26054000854492,0.06300000101327896,0.0,1
1691585394.182674,49184758,0,3,305412200,2274,19,0.62,51.6416696,-2.5257379,9.03,0.013000000268220901,44.26054000854492,0.012000000104308128,0.0,1
1691585394.382665,49384749,0,3,305412400,2274,19,0.62,51.6416696,-2.5257378,9.02,0.01900000125169754,44.26054000854492,0.05100000277161598,0.0,1
1691585394.582596,49584680,0,3,305412600,2274,19,0.62,51.6416696,-2.5257378,9.01,0.03800000250339508,44.26054000854492,0.017000000923871994,0.0,1
1691585394.782754,49784838,0,3,305412800,2274,19,0.62,51.6416697,-2.5257378,9.0,0.01100000087171793,44.26054000854492,0.01600000075995922,0.0,1
1691585394.982679,49984763,0,3,305413000,2274,19,0.62,51.6416697,-2.5257378,8.99,0.03500000014901161,44.26054000854492,0.036000002175569534,0.0,1
1691585395.182655,50184739,0,3,305413200,2274,19,0.62,51.6416697,-2.5257378,8.98,0.017000000923871994,44.26054000854492,0.02500000037252903,0.0,1
1691585395.3826969,50384781,0,3,305413400,2274,19,0.62,51.6416697,-2.5257378,8.98,0.032999999821186066,44.26054000854492,0.09000000357627869,0.0,1
1691585395.58265,50584734,0,3,305413600,2274,19,0.62,51.6416697,-2.5257378,8.98,0.032999999821186066,44.26054000854492,0.017000000923871994,0.0,1
1691585395.782702,50784786,0,3,305413800,2274,19,0.62,51.6416697,-2.5257378,8.97,0.01900000125169754,44.26054000854492,0.01100000087171793,0.0,1
1691585396.0220919,51024176,0,3,305414000,2274,19,0.62,51.6416697,-2.5257378,8.97,0.021000001579523087,44.26054000854492,-0.030000001192092896,0.0,1
1691585396.182666,51184750,0,3,305414200,2274,19,0.62,51.6416698,-2.5257378,8.97,0.04500000178813934,44.26054000854492,0.04000000283122063,0.0,1
1691585396.401856,51403940,0,3,305414400,2274,19,0.62,51.6416698,-2.5257381,8.95,0.21800000965595245,2.2718698978424072,0.01100000087171793,0.0,1
1691585396.58265,51584734,0,3,305414600,2274,19,0.62,51.6416699,-2.5257389,8.93,0.39500001072883606,297.0836181640625,0.01100000087171793,0.0,1
1691585396.782664,51784748,0,3,305414800,2274,19,0.62,51.6416701,-2.5257405,8.92,0.7210000157356262,284.6553649902344,0.030000001192092896,0.0,1
1691585397.00186,52003944,0,3,305415000,2274,19,0.62,51.6416704,-2.5257425,8.9,0.7230000495910645,285.2436828613281,0.02500000037252903,0.0,1
1691585397.18262,52184704,0,3,305415200,2274,19,0.62,51.6416708,-2.5257443,8.88,0.6300000548362732,289.3521423339844,0.020000001415610313,0.0,1
1691585397.3826,52384684,0,3,305415400,2274,19,0.62,51.6416712,-2.5257461,8.87,0.7330000400543213,288.5278015136719,0.1469999998807907,0.0,1
1691585397.601875,52603959,0,3,305415600,2274,19,0.62,51.641672,-2.5257485,8.86,1.1710000038146973,296.2698974609375,-0.030000001192092896,0.0,1
1691585397.782676,52784760,0,3,305415800,2274,19,0.62,51.6416731,-2.5257513,8.85,1.1330000162124634,301.657958984375,-0.0690000057220459,0.0,1
1691585398.002097,53004181,0,3,305416000,2274,19,0.62,51.6416743,-2.5257538,8.88,1.0509999990463257,303.1407165527344,-0.15400001406669617,0.0,1
1691585398.182599,53184683,0,3,305416200,2274,19,0.62,51.6416756,-2.5257567,8.88,1.434000015258789,304.65435791015625,-0.017000000923871994,0.0,1
1691585398.382676,53384760,0,3,305416400,2274,19,0.62,51.641677,-2.5257597,8.85,1.1920000314712524,306.78314208984375,0.23200000822544098,0.0,1
1691585398.582641,53584725,0,3,305416600,2274,19,0.62,51.6416785,-2.5257624,8.84,1.2930001020431519,311.9245910644531,-0.29500001668930054,0.0,1
1691585398.802015,53804099,0,3,305416800,2274,19,0.62,51.6416807,-2.5257654,8.85,1.8850001096725464,318.3119812011719,0.05000000074505806,0.0,1
1691585399.002007,54004091,0,3,305417000,2274,19,0.62,51.641683,-2.5257683,8.81,1.3140000104904175,320.1752624511719,0.1290000081062317,0.0,1
1691585399.201971,54204055,0,3,305417200,2274,19,0.62,51.641685,-2.5257708,8.78,1.4910000562667847,320.37139892578125,-0.03800000250339508,0.0,1
1691585399.402046,54404130,0,3,305417400,2274,19,0.62,51.6416872,-2.5257734,8.74,1.5390000343322754,324.5355224609375,0.125,0.0,1
1691585399.5825949,54584679,0,3,305417600,2274,19,0.62,51.6416892,-2.5257755,8.7,1.0810000896453857,325.1622619628906,0.04400000348687172,0.0,1
1691585399.802012,54804096,0,3,305417800,2274,19,0.62,51.6416912,-2.5257777,8.66,1.621000051498413,325.70550537109375,0.1900000125169754,0.0,1
1691585400.00207,55004154,0,3,305418000,2274,19,0.62,51.6416936,-2.5257802,8.62,1.5770000219345093,328.6351623535156,-0.04400000348687172,0.0,1
1691585400.202017,55204101,0,3,305418200,2274,19,0.62,51.6416961,-2.5257824,8.61,1.5630000829696655,328.9090576171875,-0.0950000062584877,0.0,1
1691585400.382601,55384685,0,3,305418400,2274,19,0.62,51.6416987,-2.5257848,8.58,1.7340000867843628,329.505859375,0.16300000250339508,0.0,1
1691585400.582573,55584657,0,3,305418600,2274,19,0.62,51.6417012,-2.5257873,8.51,1.4800000190734863,328.5811462402344,0.19200000166893005,0.0,1
1691585400.782656,55784740,0,3,305418800,2274,19,0.62,51.6417034,-2.5257895,8.49,1.40500009059906,328.19659423828125,-0.03100000135600567,0.0,1
1691585401.002061,56004145,0,3,305419000,2274,19,0.62,51.6417059,-2.5257919,8.44,1.843000054359436,331.8556823730469,0.19200000166893005,0.0,1
1691585401.1825619,56184646,0,3,305419200,2274,19,0.62,51.6417086,-2.5257942,8.38,1.5250000953674316,332.8721618652344,0.11000000685453415,0.0,1
1691585401.382651,56384735,0,3,305419400,2274,19,0.62,51.641711,-2.5257961,8.39,1.4800000190734863,333.6444396972656,-0.1990000158548355,0.0,1
1691585401.582658,56584742,0,3,305419600,2274,19,0.62,51.6417135,-2.5257983,8.37,1.65500009059906,332.6562194824219,0.09400000423192978,0.0,1
1691585401.782684,56784768,0,3,305419800,2274,19,0.62,51.6417158,-2.5258006,8.35,1.4170000553131104,329.8885192871094,0.005000000353902578,0.0,1
1691585402.002088,57004172,0,3,305420000,2274,19,0.62,51.6417183,-2.525803,8.35,1.746000051498413,331.10748291015625,-0.020000001415610313,0.0,1
1691585402.182666,57184750,0,3,305420200,2274,19,0.62,51.6417209,-2.5258054,8.33,1.537000060081482,331.7673645019531,-0.04000000283122063,0.0,1
1691585402.382643,57384727,0,3,305420400,2274,19,0.62,51.6417232,-2.5258076,8.32,1.4560000896453857,329.60003662109375,-0.003000000026077032,0.0,1
1691585402.582602,57584686,0,3,305420600,2274,19,0.62,51.6417255,-2.52581,8.3,1.6110000610351562,329.6967468261719,0.03500000014901161,0.0,1
1691585402.782691,57784775,0,3,305420800,2274,19,0.62,51.6417276,-2.5258123,8.29,1.2330000400543213,328.19805908203125,0.0020000000949949026,0.0,1
1691585402.982585,57984669,0,3,305421000,2274,19,0.62,51.6417297,-2.5258144,8.28,1.5190000534057617,329.8631591796875,0.06700000166893005,0.0,1
1691585403.182587,58184671,0,3,305421200,2274,19,0.62,51.6417322,-2.5258168,8.27,1.6680001020431519,328.8724060058594,-0.13700000941753387,0.0,1
1691585403.382582,58384666,0,3,305421400,2274,19,0.62,51.6417344,-2.5258194,8.27,1.3580000400543213,326.141845703125,-0.049000002443790436,0.0,1
1691585403.582594,58584678,0,3,305421600,2274,19,0.62,51.6417365,-2.5258218,8.25,1.5110000371932983,327.8862609863281,0.004000000189989805,0.0,1
1691585403.782702,58784786,0,3,305421800,2274,19,0.62,51.6417388,-2.5258241,8.24,1.40500009059906,326.98388671875,-0.125,0.0,1
1691585404.002064,59004148,0,3,305422000,2274,19,0.62,51.6417408,-2.5258263,8.22,1.277000069618225,327.73858642578125,0.17400000989437103,0.0,1
1691585404.182651,59184735,0,3,305422200,2274,18,0.64,51.6417427,-2.5258285,8.21,1.2990000247955322,324.5088195800781,-0.07900000363588333,0.0,1
1691585404.382676,59384760,0,3,305422400,2274,19,0.62,51.6417446,-2.525831,8.18,1.415000081062317,323.2627258300781,-0.024000000208616257,0.0,1
1691585404.582656,59584740,0,3,305422600,2274,19,0.62,51.6417465,-2.5258333,8.15,1.1820000410079956,324.1629333496094,-0.003000000026077032,0.0,1
1691585404.801995,59804079,0,3,305422800,2274,19,0.62,51.6417484,-2.5258355,8.12,1.3760000467300415,323.277099609375,0.017000000923871994,0.0,1
1691585405.001922,60004006,0,3,305423000,2274,19,0.62,51.6417503,-2.5258379,8.1,1.2280000448226929,323.535400390625,0.05100000277161598,0.0,1
1691585405.202073,60204157,0,3,305423200,2274,19,0.62,51.6417521,-2.5258401,8.06,1.2190001010894775,321.6891784667969,0.11900000274181366,0.0,1
1691585405.401916,60404000,0,3,305423400,2274,19,0.62,51.641754,-2.5258425,8.03,1.440000057220459,322.4673767089844,-0.00800000037997961,0.0,1
1691585405.582664,60584748,0,3,305423600,2274,19,0.62,51.641756,-2.525845,7.99,1.3670001029968262,323.29852294921875,0.12700000405311584,0.0,1
1691585405.782677,60784761,0,3,305423800,2274,19,0.62,51.6417581,-2.5258473,7.94,1.3670001029968262,324.0302429199219,0.10600000619888306,0.0,1
1691585406.002078,61004162,0,3,305424000,2274,19,0.62,51.6417603,-2.52585,7.92,1.6720000505447388,324.0285949707031,-0.058000002056360245,0.0,1
1691585406.18264,61184724,0,3,305424200,2274,19,0.62,51.6417624,-2.5258529,7.88,1.4410001039505005,322.441162109375,0.17100000381469727,0.0,1
1691585406.402033,61404117,0,3,305424400,2274,19,0.62,51.6417645,-2.5258552,7.86,1.377000093460083,327.34466552734375,-0.009000000543892384,0.0,1
1691585406.582548,61584632,0,3,305424600,2274,19,0.62,51.6417669,-2.5258576,7.84,1.8040001392364502,326.4334411621094,0.11000000685453415,0.0,1
1691585406.782659,61784743,0,3,305424800,2274,19,0.62,51.6417692,-2.5258602,7.81,1.433000087738037,326.44378662109375,0.18000000715255737,0.0,1
1691585406.982682,61984766,0,3,305425000,2274,19,0.62,51.6417715,-2.5258628,7.76,1.65500009059906,326.00146484375,0.21400001645088196,0.0,1
1691585407.18236,62184444,0,3,305425200,2274,19,0.62,51.6417737,-2.5258656,7.76,1.467000126838684,322.22552490234375,-0.2110000103712082,0.0,1
1691585407.382659,62384743,0,3,305425400,2274,19,0.62,51.6417755,-2.5258681,7.76,1.2020000219345093,322.8827819824219,0.08700000494718552,0.0,1
1691585407.582661,62584745,0,3,305425600,2274,19,0.62,51.6417774,-2.5258706,7.73,1.558000087738037,321.1502990722656,0.13300000131130219,0.0,1
1691585407.78267,62784754,0,3,305425800,2274,19,0.62,51.6417796,-2.5258734,7.71,1.565000057220459,322.9772644042969,0.06200000271201134,0.0,1
1691585407.982662,62984746,0,3,305426000,2274,19,0.62,51.6417817,-2.5258758,7.7,1.3240001201629639,324.95880126953125,-0.12700000405311584,0.0,1
1691585408.182652,63184736,0,3,305426200,2274,19,0.62,51.6417837,-2.5258783,7.7,1.5290000438690186,320.99676513671875,0.07600000500679016,0.0,1
1691585408.382587,63384671,0,3,305426400,2274,19,0.62,51.6417856,-2.5258812,7.67,1.4190000295639038,320.1012878417969,0.0990000069141388,0.0,1
1691585408.582661,63584745,0,3,305426600,2274,19,0.62,51.6417876,-2.5258836,7.69,1.3820000886917114,324.9219055175781,-0.3660000264644623,0.0,1
1691585408.782656,63784740,0,3,305426800,2274,19,0.62,51.64179,-2.5258861,7.71,1.7360000610351562,323.818603515625,0.16200000047683716,0.0,1
1691585408.982586,63984670,0,3,305427000,2274,19,0.62,51.6417923,-2.5258889,7.65,1.5260000228881836,325.6155700683594,0.08300000429153442,0.0,1
1691585409.182599,64184683,0,3,305427200,2274,19,0.62,51.6417946,-2.5258918,7.6,1.6990001201629639,323.03106689453125,0.24400001764297485,0.0,1
1691585409.382596,64384680,0,3,305427400,2274,19,0.62,51.6417969,-2.5258948,7.56,1.571000099182129,323.8514404296875,-0.11400000751018524,0.0,1
1691585409.582561,64584645,0,3,305427600,2274,19,0.62,51.641799,-2.5258972,7.55,1.2940000295639038,324.9207458496094,0.20600001513957977,0.0,1
1691585409.782691,64784775,0,3,305427800,2274,19,0.62,51.6418009,-2.5258997,7.51,1.4620000123977661,322.2820739746094,0.13900001347064972,0.0,1
1691585409.982593,64984677,0,3,305428000,2274,19,0.62,51.641803,-2.5259023,7.47,1.4690001010894775,325.1420593261719,0.03500000014901161,0.0,1
1691585410.182571,65184655,0,3,305428200,2274,19,0.62,51.6418049,-2.5259046,7.44,1.1420000791549683,322.302490234375,0.12200000882148743,0.0,1
1691585410.382674,65384758,0,3,305428400,2274,19,0.62,51.6418064,-2.5259068,7.45,1.165000081062317,320.4379577636719,-0.09100000560283661,0.0,1
1691585410.582584,65584668,0,3,305428600,2274,19,0.62,51.641808,-2.5259091,7.46,1.1570000648498535,321.7603454589844,-0.3540000021457672,0.0,1
1691585410.782676,65784760,0,3,305428800,2274,19,0.62,51.6418095,-2.5259111,7.47,1.0150001049041748,321.1403503417969,0.08900000154972076,0.0,1
1691585410.982665,65984749,0,3,305429000,2274,19,0.62,51.6418109,-2.525913,7.45,1.062000036239624,323.85772705078125,0.007000000216066837,0.0,1
1691585411.182659,66184743,0,3,305429200,2274,19,0.62,51.6418123,-2.5259145,7.46,0.7570000290870667,324.4827880859375,-0.09000000357627869,0.0,1
1691585411.362544,66364628,0,3,305429400,2274,19,0.62,51.6418133,-2.5259164,7.47,1.0160000324249268,312.1466369628906,-0.05700000375509262,0.0,1
1691585411.58265,66584734,0,3,305429600,2274,19,0.62,51.6418146,-2.5259187,7.43,1.0940001010894775,316.0540466308594,0.30400002002716064,0.0,1
1691585411.782671,66784755,0,3,305429800,2274,19,0.62,51.6418158,-2.5259208,7.41,0.8760000467300415,313.7129821777344,-0.09200000762939453,0.0,1
1691585412.002067,67004151,0,3,305430000,2274,19,0.62,51.6418167,-2.5259226,7.43,0.718000054359436,312.6927490234375,-0.23000000417232513,0.0,1
1691585412.182647,67184731,0,3,305430200,2274,19,0.62,51.6418175,-2.525924,7.43,0.6070000529289246,316.6352233886719,0.01100000087171793,0.0,1
1691585412.382597,67384681,0,3,305430400,2274,19,0.62,51.6418182,-2.525925,7.42,0.4020000100135803,319.34893798828125,0.15900000929832458,0.0,1
1691585412.582573,67584657,0,3,305430600,2274,19,0.62,51.6418189,-2.5259257,7.4,0.5240000486373901,333.2490234375,-0.07400000095367432,0.0,1
1691585412.7825599,67784644,0,3,305430800,2274,19,0.62,51.6418199,-2.5259264,7.4,0.6690000295639038,334.04486083984375,-0.039000000804662704,0.0,1
1691585412.98269,67984774,0,3,305431000,2274,19,0.62,51.6418209,-2.5259274,7.38,0.7240000367164612,331.8421936035156,-0.11400000751018524,0.0,1
1691585413.182599,68184683,0,3,305431200,2274,19,0.62,51.6418218,-2.5259285,7.35,0.503000020980835,330.12823486328125,0.14000000059604645,0.0,1
1691585413.382585,68384669,0,3,305431400,2274,19,0.62,51.6418224,-2.5259292,7.31,0.26100000739097595,329.4030456542969,0.023000001907348633,0.0,1
1691585413.582589,68584673,0,3,305431600,2274,19,0.62,51.6418226,-2.5259298,7.3,0.2880000174045563,308.2115173339844,-0.05400000140070915,0.0,1
1691585413.782669,68784753,0,3,305431800,2274,19,0.62,51.6418229,-2.5259307,7.28,0.4050000309944153,309.553955078125,0.1210000067949295,0.0,1
1691585413.982693,68984777,0,3,305432000,2274,19,0.62,51.6418235,-2.5259314,7.25,0.36000001430511475,322.0359191894531,0.11600000411272049,0.0,1
1691585414.1826699,69184754,0,3,305432200,2274,19,0.62,51.6418239,-2.525932,7.24,0.2720000147819519,319.93682861328125,0.004000000189989805,0.0,1
1691585414.382652,69384736,0,3,305432400,2274,19,0.62,51.6418243,-2.5259325,7.21,0.24300001561641693,327.03875732421875,0.0020000000949949026,0.0,1
1691585414.582658,69584742,0,3,305432600,2274,19,0.62,51.6418247,-2.5259329,7.2,0.2850000262260437,328.64471435546875,0.015000000596046448,0.0,1
1691585414.782753,69784837,0,3,305432800,2274,19,0.62,51.6418249,-2.5259334,7.19,0.19700001180171967,314.9277038574219,-0.020000001415610313,0.0,1
1691585414.982688,69984772,0,3,305433000,2274,19,0.62,51.6418252,-2.5259339,7.17,0.2240000069141388,326.9996337890625,-0.0010000000474974513,0.0,1
1691585415.182683,70184767,0,3,305433200,2274,19,0.62,51.6418255,-2.5259344,7.16,0.1810000091791153,326.9996337890625,-0.0010000000474974513,0.0,1
1691585415.382678,70384762,0,3,305433400,2274,19,0.62,51.6418255,-2.5259347,7.16,0.06800000369548798,326.9996337890625,-0.006000000052154064,0.0,1
1691585415.582506,70584590,0,3,305433600,2274,19,0.62,51.6418256,-2.5259348,7.16,0.10400000214576721,326.9996337890625,-0.01100000087171793,0.0,1
1691585415.782676,70784760,0,3,305433800,2274,19,0.62,51.6418258,-2.5259349,7.14,0.1420000046491623,326.9996337890625,0.04400000348687172,0.0,1
1691585415.982655,70984739,0,3,305434000,2274,19,0.62,51.641826,-2.5259351,7.12,0.11700000613927841,326.9996337890625,0.02200000174343586,0.0,1
1691585416.182604,71184688,0,3,305434200,2274,19,0.62,51.6418262,-2.5259353,7.11,0.12000000476837158,326.9996337890625,0.012000000104308128,0.0,1
1691585416.382688,71384772,0,3,305434400,2274,19,0.62,51.6418265,-2.5259356,7.1,0.2290000170469284,329.2472229003906,0.04400000348687172,0.0,1
1691585416.582652,71584736,0,3,305434600,2274,19,0.62,51.6418269,-2.5259362,7.08,0.3100000023841858,324.4983825683594,0.010000000707805157,0.0,1
1691585416.802047,71804131,0,3,305434800,2274,19,0.62,51.6418272,-2.5259367,7.06,0.12200000882148743,324.4983825683594,-0.0020000000949949026,0.0,1
1691585416.982647,71984731,0,3,305435000,2274,19,0.62,51.6418274,-2.525937,7.04,0.06800000369548798,324.4983825683594,0.032999999821186066,0.0,1
1691585417.1825979,72184682,0,3,305435200,2274,19,0.62,51.6418274,-2.5259373,7.02,0.0990000069141388,324.4983825683594,-0.006000000052154064,0.0,1
1691585417.382652,72384736,0,3,305435400,2274,19,0.62,51.6418274,-2.5259374,7.01,0.0430000014603138,324.4983825683594,0.04000000283122063,0.0,1
1691585417.5826619,72584746,0,3,305435600,2274,19,0.62,51.6418274,-2.5259375,7.0,0.02200000174343586,324.4983825683594,0.006000000052154064,0.0,1
1691585417.782741,72784825,0,3,305435800,2274,19,0.62,51.6418274,-2.5259375,7.0,0.027000000700354576,324.4983825683594,0.024000000208616257,0.0,1
1691585418.002066,73004150,0,3,305436000,2274,19,0.62,51.6418275,-2.5259375,6.99,0.020000001415610313,324.4983825683594,0.023000001907348633,0.0,1
1691585418.182658,73184742,0,3,305436200,2274,19,0.62,51.6418274,-2.5259377,6.98,0.023000001907348633,324.4983825683594,-0.013000000268220901,0.0,1
1691585418.382591,73384675,0,3,305436400,2274,19,0.62,51.6418274,-2.5259377,6.98,0.015000000596046448,324.4983825683594,0.03100000135600567,0.0,1
1691585418.5826619,73584746,0,3,305436600,2274,19,0.62,51.6418274,-2.5259377,6.96,0.01100000087171793,324.4983825683594,0.07400000095367432,0.0,1
1691585418.782705,73784789,0,3,305436800,2274,19,0.62,51.6418273,-2.5259378,6.94,0.049000002443790436,324.4983825683594,0.017000000923871994,0.0,1
1691585418.982691,73984775,0,3,305437000,2274,19,0.62,51.6418272,-2.5259379,6.93,0.04100000113248825,324.4983825683594,-0.0010000000474974513,0.0,1
1691585419.182651,74184735,0,3,305437200,2274,19,0.62,51.6418272,-2.525938,6.93,0.03100000135600567,324.4983825683594,0.06200000271201134,0.0,1
1691585419.382603,74384687,0,3,305437400,2274,19,0.62,51.6418272,-2.525938,6.92,0.018000001087784767,324.4983825683594,0.04700000211596489,0.0,1
1691585419.582671,74584755,0,3,305437600,2274,19,0.62,51.6418272,-2.5259381,6.9,0.029000001028180122,324.4983825683594,0.036000002175569534,0.0,1
1691585419.782689,74784773,0,3,305437800,2274,19,0.62,51.6418271,-2.5259381,6.9,0.029000001028180122,324.4983825683594,-0.023000001907348633,0.0,1
1691585419.982684,74984768,0,3,305438000,2274,19,0.62,51.6418271,-2.5259381,6.9,0.013000000268220901,324.4983825683594,0.01600000075995922,0.0,1
1691585420.182617,75184701,0,3,305438200,2274,19,0.62,51.6418271,-2.5259382,6.89,0.02800000086426735,324.4983825683594,-0.030000001192092896,0.0,1
1691585420.382648,75384732,0,3,305438400,2274,19,0.62,51.6418271,-2.5259383,6.88,0.015000000596046448,324.4983825683594,0.00800000037997961,0.0,1
1691585420.582648,75584732,0,3,305438600,2274,19,0.62,51.6418271,-2.5259384,6.89,0.03500000014901161,324.4983825683594,-0.006000000052154064,0.0,1
1691585420.782751,75784835,0,3,305438800,2274,19,0.62,51.6418271,-2.5259384,6.87,0.01100000087171793,324.4983825683594,0.032999999821186066,0.0,1
1691585420.982569,75984653,0,3,305439000,2274,19,0.62,51.6418271,-2.5259385,6.86,0.05100000277161598,324.4983825683594,-0.07700000703334808,0.0,1
1691585421.1625109,76164595,0,3,305439200,2274,19,0.62,51.6418271,-2.5259384,6.86,0.00800000037997961,324.4983825683594,0.018000001087784767,0.0,1
1691585421.382752,76384836,0,3,305439400,2274,19,0.62,51.6418271,-2.5259384,6.85,0.010000000707805157,324.4983825683594,0.036000002175569534,0.0,1
1691585421.582643,76584727,0,3,305439600,2274,19,0.62,51.641827,-2.5259385,6.82,0.005000000353902578,324.4983825683594,-0.0010000000474974513,0.0,1
1691585421.782765,76784849,0,3,305439800,2274,19,0.62,51.641827,-2.5259385,6.82,0.017000000923871994,324.4983825683594,0.06200000271201134,0.0,1
1691585421.982692,76984776,0,3,305440000,2274,19,0.62,51.641827,-2.5259386,6.81,0.029000001028180122,324.4983825683594,0.09200000762939453,0.0,1
1691585422.182647,77184731,0,3,305440200,2274,19,0.62,51.641827,-2.5259386,6.79,0.012000000104308128,324.4983825683594,-0.012000000104308128,0.0,1
1691585422.382586,77384670,0,3,305440400,2274,19,0.62,51.641827,-2.5259386,6.79,0.020000001415610313,324.4983825683594,0.0560000017285347,0.0,1
1691585422.582538,77584622,0,3,305440600,2274,19,0.62,51.641827,-2.5259386,6.78,0.020000001415610313,324.4983825683594,0.052000001072883606,0.0,1
1691585422.78259,77784674,0,3,305440800,2274,19,0.62,51.641827,-2.5259386,6.77,0.012000000104308128,324.4983825683594,-0.04000000283122063,0.0,1
1691585422.982686,77984770,0,3,305441000,2274,19,0.62,51.641827,-2.5259386,6.78,0.004000000189989805,324.4983825683594,0.029000001028180122,0.0,1
1691585423.182542,78184626,0,3,305441200,2274,19,0.62,51.641827,-2.5259387,6.77,0.052000001072883606,324.4983825683594,0.010000000707805157,0.0,1
1691585423.382573,78384657,0,3,305441400,2274,19,0.62,51.6418269,-2.5259387,6.76,0.024000000208616257,324.4983825683594,0.04800000041723251,0.0,1
1691585423.582674,78584758,0,3,305441600,2274,19,0.62,51.6418269,-2.5259387,6.74,0.021000001579523087,324.4983825683594,-0.0020000000949949026,0.0,1
1691585423.762595,78764679,0,3,305441800,2274,19,0.62,51.6418269,-2.5259387,6.74,0.04400000348687172,324.4983825683594,0.13600000739097595,0.0,1
1691585424.0020869,79004171,0,3,305442000,2274,19,0.62,51.6418269,-2.5259388,6.72,0.023000001907348633,324.4983825683594,0.02500000037252903,0.0,1
1691585424.182677,79184761,0,3,305442200,2274,19,0.62,51.6418269,-2.5259388,6.72,0.021000001579523087,324.4983825683594,0.04400000348687172,0.0,1
1691585424.382618,79384702,0,3,305442400,2274,19,0.62,51.6418269,-2.5259389,6.7,0.027000000700354576,324.4983825683594,0.06000000238418579,0.0,1
1691585424.582592,79584676,0,3,305442600,2274,19,0.62,51.6418269,-2.5259389,6.7,0.02800000086426735,324.4983825683594,0.04100000113248825,0.0,1
1691585424.782697,79784781,0,3,305442800,2274,19,0.62,51.6418269,-2.5259389,6.7,0.021000001579523087,324.4983825683594,0.06100000441074371,0.0,1
1691585424.982545,79984629,0,3,305443000,2274,19,0.62,51.6418268,-2.5259389,6.69,0.01600000075995922,324.4983825683594,0.0010000000474974513,0.0,1
1691585425.162521,80164605,0,3,305443200,2274,19,0.62,51.6418268,-2.5259388,6.68,0.030000001192092896,324.4983825683594,0.021000001579523087,0.0,1
1691585425.382559,80384643,0,3,305443400,2274,19,0.62,51.6418268,-2.5259388,6.68,0.021000001579523087,324.4983825683594,0.02500000037252903,0.0,1
1691585425.562543,80564627,0,3,305443600,2274,19,0.62,51.6418268,-2.5259388,6.66,0.013000000268220901,324.4983825683594,0.03200000151991844,0.0,1
1691585425.782562,80784646,0,3,305443800,2274,19,0.62,51.6418269,-2.5259388,6.65,0.08800000697374344,324.4983825683594,0.0690000057220459,0.0,1
1691585425.982651,80984735,0,3,305444000,2274,19,0.62,51.6418271,-2.5259385,6.64,0.17900000512599945,324.4983825683594,-0.046000003814697266,0.0,1
1691585426.182515,81184599,0,3,305444200,2274,19,0.62,51.6418273,-2.5259382,6.65,0.20800000429153442,345.2784423828125,-0.007000000216066837,0.0,1
1691585426.401996,81404080,0,3,305444400,2274,19,0.62,51.6418277,-2.5259381,6.65,0.23800000548362732,352.5995788574219,0.039000000804662704,0.0,1
1691585426.582506,81584590,0,3,305444600,2274,19,0.62,51.6418281,-2.525938,6.63,0.2110000103712082,11.897629737854004,0.04200000315904617,0.0,1
1691585426.782671,81784755,0,3,305444800,2274,19,0.62,51.6418285,-2.5259377,6.62,0.25200000405311584,22.30202865600586,0.12300000339746475,0.0,1
1691585426.982639,81984723,0,3,305445000,2274,19,0.62,51.6418288,-2.5259371,6.62,0.26900002360343933,52.47509002685547,-0.05100000277161598,0.0,1
1691585427.182658,82184742,0,3,305445200,2274,19,0.62,51.6418289,-2.5259363,6.6,0.3540000021457672,68.31810760498047,0.03400000184774399,0.0,1
1691585427.3825939,82384678,0,3,305445400,2274,19,0.62,51.6418294,-2.5259355,6.59,0.47600001096725464,46.75761032104492,0.005000000353902578,0.0,1
1691585427.58256,82584644,0,3,305445600,2274,19,0.62,51.6418301,-2.5259343,6.62,0.6210000514984131,50.97846984863281,-0.203000009059906,0.0,1
1691585427.782672,82784756,0,3,305445800,2274,19,0.62,51.6418307,-2.5259331,6.61,0.49400001764297485,51.085140228271484,0.1550000011920929,0.0,1
1691585427.98266,82984744,0,4,305446000,2274,19,0.62,51.6418312,-2.525932,6.65,0.4870000183582306,46.33395004272461,-0.1120000034570694,0.0,1
1691585428.182565,83184649,0,4,305446200,2274,19,0.62,51.6418318,-2.5259305,6.7,0.7660000324249268,61.824310302734375,-0.024000000208616257,0.0,1
1691585428.382474,83384558,0,4,305446400,2274,18,0.64,51.6418322,-2.5259285,6.68,0.7830000519752502,64.17726135253906,0.12700000405311584,0.0,1
1691585428.582585,83584669,0,4,305446600,2274,18,0.64,51.6418328,-2.5259263,6.69,0.8320000171661377,63.18921661376953,0.08400000631809235,0.0,1
1691585428.78267,83784754,0,4,305446800,2274,18,0.64,51.6418334,-2.5259235,6.71,1.2260000705718994,71.25653076171875,-0.11400000751018524,0.0,1
1691585428.982659,83984743,0,4,305447000,2274,19,0.62,51.6418338,-2.5259204,6.76,0.9310000538825989,73.00695037841797,-0.08000000566244125,0.0,1
1691585429.182587,84184671,0,4,305447200,2274,19,0.62,51.6418342,-2.5259179,6.77,0.8880000710487366,74.03235626220703,-0.06000000238418579,0.0,1
1691585429.3625429,84364627,0,4,305447400,2274,18,0.64,51.6418344,-2.5259149,6.8,1.2590000629425049,81.65589904785156,-0.10500000417232513,0.0,1
1691585429.58253,84584614,0,4,305447600,2274,18,0.64,51.6418346,-2.5259113,6.79,1.193000078201294,82.44842529296875,0.24000000953674316,0.0,1
1691585429.782703,84784787,0,4,305447800,2274,18,0.64,51.6418347,-2.525908,6.78,1.1220000982284546,85.238037109375,-0.020000001415610313,0.0,1
1691585430.002095,85004179,0,4,305448000,2274,19,0.62,51.6418347,-2.5259044,6.79,1.3450000286102295,88.06482696533203,-0.08400000631809235,0.0,1
1691585430.182663,85184747,0,4,305448200,2274,19,0.62,51.6418347,-2.5259008,6.82,1.0480000972747803,89.70063781738281,-0.10300000756978989,0.0,1
1691585430.382566,85384650,0,4,305448400,2274,19,0.62,51.6418345,-2.5258977,6.82,1.1820000410079956,96.85924530029297,0.02800000086426735,0.0,1
1691585430.582588,85584672,0,4,305448600,2274,19,0.62,51.641834,-2.525894,6.84,1.3370000123977661,101.03934478759766,-0.20500001311302185,0.0,1
1691585430.782688,85784772,0,4,305448800,2274,19,0.62,51.6418334,-2.5258903,6.86,1.1820000410079956,101.04674530029297,0.14800000190734863,0.0,1
1691585430.982675,85984759,0,4,305449000,2274,19,0.62,51.6418329,-2.5258867,6.81,1.2660000324249268,103.59214782714844,0.2980000078678131,0.0,1
1691585431.182649,86184733,0,4,305449200,2274,19,0.62,51.6418321,-2.5258829,6.8,1.4140000343322754,105.57456970214844,0.05700000375509262,0.0,1
1691585431.382517,86384601,0,4,305449400,2274,19,0.62,51.6418316,-2.5258792,6.81,1.2320001125335693,102.57263946533203,-0.01100000087171793,0.0,1
1691585431.582518,86584602,0,4,305449600,2274,19,0.62,51.6418308,-2.5258757,6.82,1.343000054359436,108.274658203125,0.029000001028180122,0.0,1
1691585431.782533,86784617,0,4,305449800,2274,19,0.62,51.6418297,-2.5258719,6.83,1.6380001306533813,109.2044448852539,0.26100000739097595,0.0,1
1691585431.982699,86984783,0,4,305450000,2274,19,0.62,51.6418286,-2.5258683,6.84,1.3220000267028809,110.28489685058594,-0.13199999928474426,0.0,1
1691585432.162382,87164466,0,4,305450200,2274,19,0.62,51.6418276,-2.5258651,6.87,1.3510000705718994,114.33599090576172,-0.07700000703334808,0.0,1
1691585432.382569,87384653,0,4,305450400,2274,19,0.62,51.6418266,-2.5258613,6.87,1.4880000352859497,111.99850463867188,-0.032999999821186066,0.0,1
1691585432.582659,87584743,0,4,305450600,2274,19,0.62,51.6418256,-2.5258575,6.86,1.2950000762939453,113.5702133178711,0.20500001311302185,0.0,1
1691585432.782662,87784746,0,4,305450800,2274,19,0.62,51.6418247,-2.5258543,6.88,1.1510000228881836,110.70533752441406,-0.26500001549720764,0.0,1
1691585432.9826639,87984748,0,4,305451000,2274,19,0.62,51.6418237,-2.5258505,6.9,1.6450001001358032,115.1920394897461,0.22300000488758087,0.0,1
1691585433.182652,88184736,0,4,305451200,2274,19,0.62,51.6418223,-2.5258471,6.91,1.1950000524520874,117.21180725097656,0.005000000353902578,0.0,1
1691585433.382778,88384862,0,4,305451400,2274,19,0.62,51.641821,-2.525844,6.96,1.3790000677108765,118.98307037353516,-0.26200002431869507,0.0,1
1691585433.582571,88584655,0,4,305451600,2274,19,0.62,51.6418195,-2.5258404,6.98,1.558000087738037,119.13760375976562,0.28200000524520874,0.0,1
1691585433.782695,88784779,0,4,305451800,2274,19,0.62,51.6418183,-2.525837,6.96,1.1180000305175781,117.12390899658203,0.13199999928474426,0.0,1
1691585433.982679,88984763,0,4,305452000,2274,19,0.62,51.6418172,-2.5258342,7.01,1.1750000715255737,121.18500518798828,-0.22700001299381256,0.0,1
1691585434.182592,89184676,0,4,305452200,2274,19,0.62,51.6418161,-2.5258309,7.06,1.3900001049041748,118.4742202758789,-0.18800000846385956,0.0,1
1691585434.382667,89384751,0,4,305452400,2274,19,0.62,51.6418149,-2.5258275,7.04,1.3350000381469727,118.78907775878906,0.3460000157356262,0.0,1
1691585434.582514,89584598,0,4,305452600,2274,19,0.62,51.6418136,-2.525824,7.03,1.4300000667572021,119.29637908935547,-0.04400000348687172,0.0,1
1691585434.78258,89784664,0,4,305452800,2274,19,0.62,51.6418125,-2.5258199,7.04,1.4180001020431519,117.01041412353516,-0.07900000363588333,0.0,1
1691585434.982553,89984637,0,4,305453000,2274,19,0.62,51.6418114,-2.5258161,7.02,1.3310000896453857,118.49250030517578,0.2600000202655792,0.0,1
1691585435.1826,90184684,0,4,305453200,2274,19,0.62,51.6418101,-2.5258123,7.01,1.4570000171661377,121.34136962890625,-0.004000000189989805,0.0,1
1691585435.382662,90384746,0,4,305453400,2274,19,0.62,51.6418085,-2.5258085,7.02,1.6660001277923584,122.8118667602539,0.02200000174343586,0.0,1
1691585435.5825899,90584674,0,4,305453600,2274,19,0.62,51.641807,-2.5258048,7.02,1.4540001153945923,123.02738952636719,0.03100000135600567,0.0,1
1691585435.782685,90784769,0,4,305453800,2274,19,0.62,51.6418055,-2.5258011,7.02,1.4200000762939453,125.05984497070312,-0.13300000131130219,0.0,1
1691585436.002041,91004125,0,4,305454000,2274,19,0.62,51.6418041,-2.5257978,7.03,1.3450000286102295,124.12085723876953,0.1340000033378601,0.0,1
1691585436.182574,91184658,0,4,305454200,2274,19,0.62,51.6418027,-2.5257946,7.03,1.315000057220459,125.27137756347656,0.0950000062584877,0.0,1
1691585436.382638,91384722,0,4,305454400,2274,19,0.62,51.6418011,-2.5257913,7.01,1.5530000925064087,125.9655990600586,0.1210000067949295,0.0,1
1691585436.582654,91584738,0,4,305454600,2274,19,0.62,51.6417995,-2.5257885,7.03,1.158000111579895,129.62338256835938,-0.09700000286102295,0.0,1
1691585436.7825959,91784680,0,4,305454800,2274,19,0.62,51.641798,-2.5257858,7.06,1.3730000257492065,126.9671859741211,-0.058000002056360245,0.0,1
1691585436.982651,91984735,0,4,305455000,2274,19,0.62,51.6417965,-2.5257825,7.1,1.4470000267028809,125.34363555908203,-0.20100000500679016,0.0,1
1691585437.182548,92184632,0,4,305455200,2274,19,0.62,51.641795,-2.5257793,7.11,1.3420000076293945,126.12815856933594,0.20100000500679016,0.0,1
1691585437.362463,92364547,0,4,305455400,2274,19,0.62,51.6417935,-2.5257763,7.11,1.3910000324249268,128.59103393554688,0.006000000052154064,0.0,1
1691585437.562498,92564582,0,4,305455600,2274,19,0.62,51.6417917,-2.5257732,7.14,1.5570000410079956,131.2344970703125,-0.17100000381469727,0.0,1
1691585437.782428,92784512,0,4,305455800,2274,19,0.62,51.6417898,-2.5257701,7.13,1.415000081062317,131.8404541015625,0.2980000078678131,0.0,1
1691585437.982684,92984768,0,4,305456000,2274,19,0.62,51.6417882,-2.525767,7.13,1.4410001039505005,130.04066467285156,-0.013000000268220901,0.0,1
1691585438.182552,93184636,0,4,305456200,2274,19,0.62,51.6417865,-2.5257638,7.16,1.468000054359436,130.57998657226562,-0.0820000022649765,0.0,1
1691585438.382533,93384617,0,4,305456400,2274,19,0.62,51.641785,-2.5257609,7.18,1.1950000524520874,129.1344451904297,0.036000002175569534,0.0,1
1691585438.582516,93584600,0,4,305456600,2274,19,0.62,51.6417836,-2.5257582,7.21,1.2680000066757202,131.01974487304688,-0.03100000135600567,0.0,1
1691585438.782664,93784748,0,4,305456800,2274,19,0.62,51.6417819,-2.5257551,7.2,1.5230001211166382,129.15553283691406,0.09200000762939453,0.0,1
1691585438.982517,93984601,0,4,305457000,2274,19,0.62,51.6417804,-2.525752,7.19,1.3160001039505005,129.49623107910156,0.19500000774860382,0.0,1
1691585439.182537,94184621,0,4,305457200,2274,19,0.62,51.6417788,-2.525749,7.21,1.3700001239776611,129.29237365722656,-0.2600000202655792,0.0,1
1691585439.382499,94384583,0,4,305457400,2274,19,0.62,51.6417774,-2.5257459,7.24,1.3270000219345093,125.46641540527344,0.04800000041723251,0.0,1
1691585439.582381,94584465,0,4,305457600,2274,19,0.62,51.6417762,-2.5257428,7.24,1.2060000896453857,125.27489471435547,0.05000000074505806,0.0,1
1691585439.782552,94784636,0,4,305457800,2274,19,0.62,51.6417751,-2.5257397,7.28,1.2850000858306885,119.95243835449219,-0.27300000190734863,0.0,1
1691585439.982661,94984745,0,4,305458000,2274,19,0.62,51.6417738,-2.5257362,7.29,1.4640001058578491,122.80619049072266,-0.006000000052154064,0.0,1
1691585440.182617,95184701,0,4,305458200,2274,19,0.62,51.6417725,-2.5257328,7.31,1.312000036239624,120.23794555664062,0.08400000631809235,0.0,1
1691585440.36249,95364574,0,4,305458400,2274,19,0.62,51.6417715,-2.5257293,7.3,1.3920000791549683,115.5055160522461,0.026000000536441803,0.0,1
1691585440.582581,95584665,0,4,305458600,2274,19,0.62,51.6417705,-2.5257252,7.29,1.3990000486373901,115.45659637451172,0.20900000631809235,0.0,1
1691585440.78265,95784734,0,4,305458800,2274,19,0.62,51.6417696,-2.5257217,7.26,1.1320000886917114,113.20787048339844,0.0820000022649765,0.0,1
1691585440.982665,95984749,0,4,305459000,2274,19,0.62,51.6417689,-2.5257181,7.28,1.2970000505447388,108.05120086669922,-0.14000000059604645,0.0,1
1691585441.182595,96184679,0,4,305459200,2274,19,0.62,51.6417682,-2.5257142,7.3,1.4300000667572021,107.4739990234375,-0.023000001907348633,0.0,1
1691585441.38259,96384674,0,4,305459400,2274,19,0.62,51.6417677,-2.5257103,7.31,1.2690000534057617,104.4585189819336,0.06599999964237213,0.0,1
1691585441.582656,96584740,0,4,305459600,2274,19,0.62,51.6417674,-2.5257065,7.31,1.3820000886917114,98.33792114257812,0.18200001120567322,0.0,1
1691585441.762556,96764640,0,4,305459800,2274,19,0.62,51.6417674,-2.5257031,7.3,0.9110000729560852,95.20050048828125,-0.03100000135600567,0.0,1
1691585442.002073,97004157,0,4,305460000,2274,19,0.62,51.6417675,-2.5257005,7.31,0.9110000729560852,93.55447387695312,0.14400000870227814,0.0,1
1691585442.182576,97184660,0,4,305460200,2274,19,0.62,51.6417676,-2.5256977,7.33,1.0090000629425049,86.98086547851562,-0.04100000113248825,0.0,1
1691585442.382531,97384615,0,4,305460400,2274,19,0.62,51.6417678,-2.5256951,7.34,0.8670000433921814,85.5208511352539,-0.0860000029206276,0.0,1
1691585442.5826669,97584751,0,4,305460600,2274,19,0.62,51.6417681,-2.5256931,7.34,0.5879999995231628,82.37484741210938,0.0010000000474974513,0.0,1
1691585442.782567,97784651,0,4,305460800,2274,19,0.62,51.6417686,-2.5256915,7.37,0.6890000104904175,59.93050765991211,0.04400000348687172,0.0,1
1691585442.982555,97984639,0,4,305461000,2274,19,0.62,51.6417694,-2.5256905,7.37,0.45500001311302185,49.51493835449219,0.10300000756978989,0.0,1
1691585443.162375,98164459,0,4,305461200,2274,19,0.62,51.6417699,-2.52569,7.35,0.2200000137090683,50.532588958740234,0.18000000715255737,0.0,1
1691585443.382668,98384752,0,4,305461400,2274,19,0.62,51.64177,-2.5256901,7.35,0.2370000183582306,340.2235107421875,0.052000001072883606,0.0,1
