timestamp,TimeUS,Lat,Lng,Alt,RelHomeAlt,RelOriginAlt
1691585359.440772,14442856,51.6417309,-2.5256134,0.08999999612569809,0.09429970383644104,
1691585359.480615,14482699,51.6417309,-2.5256134,0.3199999928474426,0.3245019316673279,
1691585359.520568,14522652,51.6417309,-2.5256134,0.3199999928474426,0.3245019316673279,
1691585359.560663,14562747,51.6417309,-2.5256134,0.2800000011920929,0.2828991115093231,
1691585359.6007159,14602800,51.6417308,-2.5256136,0.2800000011920929,0.2828991115093231,
1691585359.642968,14645052,51.6417308,-2.5256136,0.2800000011920929,0.2828991115093231,
1691585359.68201,14684094,51.6417308,-2.5256137,0.11999999731779099,0.12758195400238037,
1691585359.72192,14724004,51.6417308,-2.5256137,0.11999999731779099,0.12758195400238037,
1691585359.761752,14763836,51.6417308,-2.5256137,0.20999999344348907,0.21633462607860565,
1691585359.801685,14803769,51.6417308,-2.5256137,0.20999999344348907,0.21633462607860565,
1691585359.841506,14843590,51.6417308,-2.5256137,0.20999999344348907,0.21633462607860565,
1691585359.882681,14884765,51.6417308,-2.5256137,0.3700000047683716,0.37997233867645264,
1691585359.921349,14923433,51.6417308,-2.5256137,0.3700000047683716,0.37997233867645264,
1691585359.962079,14964163,51.6417308,-2.5256137,0.29999998211860657,0.30231377482414246,
1691585360.00182,15003904,51.6417308,-2.5256137,0.29999998211860657,0.30231377482414246,
1691585360.04218,15044264,51.6417307,-2.5256138,0.29999998211860657,0.30231377482414246,
1691585360.081567,15083651,51.6417307,-2.5256138,0.09999999403953552,0.10262026637792587,
1691585360.121525,15123609,51.6417307,-2.5256138,0.09999999403953552,0.10262026637792587,
1691585360.16217,15164254,51.6417307,-2.5256138,0.08999999612569809,0.09152618795633316,
1691585360.202313,15204397,51.6417307,-2.5256138,0.08999999612569809,0.09152618795633316,
1691585360.242805,15244889,51.6417307,-2.525614,0.08999999612569809,0.09152618795633316,
1691585360.282168,15284252,51.6417307,-2.525614,11.729999542236328,0.19137293100357056,0.1899999976158142
1691585360.321791,15323875,51.6417307,-2.525614,11.729999542236328,0.19137293100357056,0.1899999976158142
1691585360.36217,15364254,51.6417307,-2.525614,11.630000114440918,0.09152618795633316,0.08999999612569809
1691585360.40182,15403904,51.6417307,-2.525614,11.630000114440918,0.09152618795633316,0.08999999612569809
1691585360.443754,15445838,51.6417307,-2.5256141,11.630000114440918,0.09152618795633316,0.08999999612569809
1691585360.482506,15484590,51.6417307,-2.5256141,11.579999923706055,0.049923375248909,0.03999999910593033
1691585360.522353,15524437,51.6417307,-2.5256141,11.579999923706055,0.049923375248909,0.03999999910593033
1691585360.563071,15565155,51.6417307,-2.5256142,11.59999942779541,0.06656450033187866,0.05999999865889549
1691585360.60379,15605874,51.6417306,-2.5256143,11.59999942779541,0.06656450033187866,0.05999999865889549
1691585360.643286,15645370,51.6417306,-2.5256143,11.59999942779541,0.06656450033187866,0.05999999865889549
1691585360.683191,15685275,51.6417306,-2.5256143,11.479999542236328,-0.05547041445970535,-0.05999999865889549
1691585360.723159,15725243,51.6417306,-2.5256143,11.479999542236328,-0.05547041445970535,-0.05999999865889549
1691585360.76437,15766454,51.6417306,-2.5256143,11.789999961853027,0.25516390800476074,0.25
1691585360.80306,15805144,51.6417306,-2.5256144,11.789999961853027,0.25516390800476074,0.25
1691585360.843326,15845410,51.6417306,-2.5256144,11.789999961853027,0.25516390800476074,0.25
1691585360.882681,15884765,51.6417306,-2.5256145,11.569999694824219,0.030508728697896004,0.029999999329447746
1691585360.9226189,15924703,51.6417306,-2.5256145,11.569999694824219,0.030508728697896004,0.029999999329447746
1691585360.96454,15966624,51.6417306,-2.5256145,11.630000114440918,0.09707322716712952,0.08999999612569809
1691585361.002832,16004916,51.6417306,-2.5256146,11.630000114440918,0.09707322716712952,0.08999999612569809
1691585361.043296,16045380,51.6417306,-2.5256146,11.630000114440918,0.09707322716712952,0.08999999612569809
1691585361.08275,16084834,51.6417305,-2.5256146,11.6899995803833,0.15809068083763123,0.14999999105930328
1691585361.122573,16124657,51.6417305,-2.5256146,11.6899995803833,0.15809068083763123,0.14999999105930328
1691585361.164492,16166576,51.6417305,-2.5256146,11.59000015258789,0.05547041445970535,0.04999999701976776
1691585361.203357,16205441,51.6417305,-2.5256147,11.59000015258789,0.05547041445970535,0.04999999701976776
1691585361.243855,16245939,51.6417305,-2.5256147,11.59000015258789,0.05547041445970535,0.04999999701976776
1691585361.283318,16285402,51.6417305,-2.5256147,11.65999984741211,0.12480843812227249,0.11999999731779099
1691585361.322694,16324778,51.6417305,-2.5256147,11.65999984741211,0.12480843812227249,0.11999999731779099
1691585361.364316,16366400,51.6417305,-2.5256148,11.630000114440918,0.09152618795633316,0.08999999612569809
1691585361.402848,16404932,51.6417305,-2.5256148,11.630000114440918,0.09152618795633316,0.08999999612569809
1691585361.4436,16445684,51.6417305,-2.5256148,11.630000114440918,0.09152618795633316,0.08999999612569809
1691585361.482747,16484831,51.6417305,-2.5256148,11.729999542236328,0.19414645433425903,0.1899999976158142
1691585361.522596,16524680,51.6417305,-2.5256148,11.729999542236328,0.19414645433425903,0.1899999976158142
1691585361.56431,16566394,51.6417305,-2.5256148,11.679999351501465,0.149770125746727,0.14000000059604645
1691585361.602798,16604882,51.6417305,-2.5256151,11.679999351501465,0.149770125746727,0.14000000059604645
1691585361.64331,16645394,51.6417305,-2.5256151,11.679999351501465,0.149770125746727,0.14000000059604645
1691585361.683243,16685327,51.6417305,-2.5256151,11.809999465942383,0.2745785415172577,0.26999998092651367
1691585361.723152,16725236,51.6417305,-2.5256151,11.809999465942383,0.2745785415172577,0.26999998092651367
1691585361.764416,16766500,51.6417305,-2.5256152,11.739999771118164,0.20801405608654022,0.19999998807907104
1691585361.802991,16805075,51.6417305,-2.5256152,11.739999771118164,0.20801405608654022,0.19999998807907104
1691585361.843292,16845376,51.6417305,-2.5256152,11.739999771118164,0.20801405608654022,0.19999998807907104
1691585361.882757,16884841,51.6417305,-2.5256152,11.569999694824219,0.030508728697896004,0.029999999329447746
1691585361.922698,16924782,51.6417305,-2.5256152,11.569999694824219,0.030508728697896004,0.029999999329447746
1691585361.964355,16966439,51.6417305,-2.5256152,11.489999771118164,-0.04437633231282234,-0.04999999701976776
1691585362.002878,17004962,51.6417305,-2.5256152,11.489999771118164,-0.04437633231282234,-0.04999999701976776
1691585362.043326,17045410,51.6417305,-2.5256153,11.489999771118164,-0.04437633231282234,-0.04999999701976776
1691585362.0826979,17084782,51.6417305,-2.5256153,11.630000114440918,0.09152618795633316,0.08999999612569809
1691585362.1226,17124684,51.6417305,-2.5256153,11.630000114440918,0.09152618795633316,0.08999999612569809
1691585362.164473,17166557,51.6417305,-2.5256153,11.619999885559082,0.08320562541484833,0.07999999821186066
1691585362.203357,17205441,51.6417304,-2.5256154,11.619999885559082,0.08320562541484833,0.07999999821186066
1691585362.24405,17246134,51.6417304,-2.5256154,11.619999885559082,0.08320562541484833,0.07999999821186066
1691585362.283186,17285270,51.6417303,-2.5256154,11.609999656677246,0.0748850628733635,0.07000000029802322
1691585362.322707,17324791,51.6417303,-2.5256154,11.609999656677246,0.0748850628733635,0.07000000029802322
1691585362.364251,17366335,51.6417303,-2.5256154,11.829999923706055,0.293993204832077,0.28999999165534973
1691585362.40286,17404944,51.6417303,-2.5256154,11.829999923706055,0.293993204832077,0.28999999165534973
1691585362.443589,17445673,51.6417304,-2.5256155,11.829999923706055,0.293993204832077,0.28999999165534973
1691585362.483281,17485365,51.6417304,-2.5256155,11.639999389648438,0.10262026637792587,0.09999999403953552
1691585362.522682,17524766,51.6417304,-2.5256155,11.639999389648438,0.10262026637792587,0.09999999403953552
1691585362.564171,17566255,51.6417304,-2.5256155,11.75999927520752,0.2218816578388214,0.2199999988079071
1691585362.602817,17604901,51.6417304,-2.5256155,11.75999927520752,0.2218816578388214,0.2199999988079071
1691585362.643337,17645421,51.6417304,-2.5256156,11.75999927520752,0.2218816578388214,0.2199999988079071
1691585362.683686,17685770,51.6417304,-2.5256156,11.809999465942383,0.2718050479888916,0.26999998092651367
1691585362.723252,17725336,51.6417304,-2.5256156,11.809999465942383,0.2718050479888916,0.26999998092651367
1691585362.76434,17766424,51.6417304,-2.5256156,11.809999465942383,0.2718050479888916,0.26999998092651367
1691585362.803038,17805122,51.6417304,-2.5256156,11.809999465942383,0.2718050479888916,0.26999998092651367
1691585362.843332,17845416,51.6417304,-2.5256158,11.809999465942383,0.2718050479888916,0.26999998092651367
1691585362.883286,17885370,51.6417304,-2.5256158,11.75,0.21356110274791718,0.20999999344348907
1691585362.92259,17924674,51.6417304,-2.5256158,11.75,0.21356110274791718,0.20999999344348907
1691585362.964288,17966372,51.6417304,-2.5256158,11.6899995803833,0.15809068083763123,0.14999999105930328
1691585363.0028229,18004907,51.6417304,-2.5256157,11.6899995803833,0.15809068083763123,0.14999999105930328
1691585363.043299,18045383,51.6417304,-2.5256157,11.6899995803833,0.15809068083763123,0.14999999105930328
1691585363.0831969,18085281,51.6417304,-2.5256157,11.739999771118164,0.20801405608654022,0.19999998807907104
1691585363.122599,18124683,51.6417304,-2.5256157,11.739999771118164,0.20801405608654022,0.19999998807907104
1691585363.164296,18166380,51.6417304,-2.5256157,11.670000076293945,0.13867603242397308,0.12999999523162842
1691585363.203359,18205443,51.6417303,-2.5256159,11.670000076293945,0.13867603242397308,0.12999999523162842
1691585363.243854,18245938,51.6417303,-2.5256159,11.670000076293945,0.13867603242397308,0.12999999523162842
1691585363.283796,18285880,51.6417302,-2.525616,11.84000015258789,0.30508729815483093,0.29999998211860657
1691585363.322751,18324835,51.6417302,-2.525616,11.84000015258789,0.30508729815483093,0.29999998211860657
1691585363.364294,18366378,51.6417302,-2.525616,11.550000190734863,0.011094083078205585,0.009999999776482582
1691585363.402803,18404887,51.6417305,-2.5256158,11.550000190734863,0.011094083078205585,0.009999999776482582
1691585363.443687,18445771,51.6417305,-2.5256158,11.550000190734863,0.011094083078205585,0.009999999776482582
1691585363.483317,18485401,51.6417306,-2.5256158,11.75,0.21633462607860565,0.20999999344348907
1691585363.522593,18524677,51.6417306,-2.5256157,11.75,0.21633462607860565,0.20999999344348907
1691585363.564473,18566557,51.6417306,-2.5256157,11.65999984741211,0.12203491479158401,0.11999999731779099
1691585363.602828,18604912,51.6417305,-2.5256159,11.65999984741211,0.12203491479158401,0.11999999731779099
1691585363.643275,18645359,51.6417306,-2.5256159,11.65999984741211,0.12203491479158401,0.11999999731779099
1691585363.683698,18685782,51.6417306,-2.5256159,11.670000076293945,0.1359025239944458,0.12999999523162842
1691585363.723162,18725246,51.6417306,-2.5256159,11.670000076293945,0.1359025239944458,0.12999999523162842
1691585363.764259,18766343,51.6417306,-2.5256159,11.649999618530273,0.1109408289194107,0.10999999940395355
1691585363.802874,18804958,51.6417302,-2.5256158,11.649999618530273,0.1109408289194107,0.10999999940395355
1691585363.843302,18845386,51.6417302,-2.5256159,11.649999618530273,0.1109408289194107,0.10999999940395355
1691585363.883182,18885266,51.6417302,-2.5256159,11.75,0.21633462607860565,0.20999999344348907
1691585363.922581,18924665,51.6417301,-2.5256159,11.75,0.21633462607860565,0.20999999344348907
1691585363.964292,18966376,51.6417301,-2.5256159,11.609999656677246,0.0748850628733635,0.07000000029802322
1691585364.002815,19004899,51.64173,-2.5256159,11.609999656677246,0.0748850628733635,0.07000000029802322
1691585364.043314,19045398,51.6417304,-2.5256159,11.609999656677246,0.0748850628733635,0.07000000029802322
1691585364.083301,19085385,51.6417305,-2.5256159,11.75,0.21356110274791718,0.20999999344348907
1691585364.122561,19124645,51.6417305,-2.5256159,11.75,0.21356110274791718,0.20999999344348907
1691585364.164319,19166403,51.6417305,-2.525616,11.75999927520752,0.2218816578388214,0.2199999988079071
1691585364.203534,19205618,51.6417306,-2.5256156,11.75999927520752,0.2218816578388214,0.2199999988079071
1691585364.243857,19245941,51.6417306,-2.5256155,11.75999927520752,0.2218816578388214,0.2199999988079071
1691585364.283813,19285897,51.6417306,-2.5256155,11.929999351501465,0.3966134786605835,0.38999998569488525
1691585364.32275,19324834,51.6417307,-2.5256155,11.929999351501465,0.3966134786605835,0.38999998569488525
1691585364.364168,19366252,51.6417307,-2.5256154,11.869999885559082,0.33004897832870483,0.32999998331069946
1691585364.402818,19404902,51.6417305,-2.5256159,11.869999885559082,0.33004897832870483,0.32999998331069946
1691585364.443654,19445738,51.6417304,-2.5256159,11.869999885559082,0.33004897832870483,0.32999998331069946
1691585364.483255,19485339,51.6417304,-2.5256159,11.929999351501465,0.393839955329895,0.38999998569488525
1691585364.522587,19524671,51.6417304,-2.525616,11.929999351501465,0.393839955329895,0.38999998569488525
1691585364.5642,19566284,51.6417304,-2.525616,11.829999923706055,0.2967667281627655,0.28999999165534973
1691585364.602836,19604920,51.6417304,-2.525616,11.829999923706055,0.2967667281627655,0.28999999165534973
1691585364.643338,19645422,51.6417304,-2.525616,11.829999923706055,0.2967667281627655,0.28999999165534973
1691585364.683703,19685787,51.6417304,-2.525616,11.90999984741211,0.37997233867645264,0.3700000047683716
1691585364.723088,19725172,51.6417304,-2.525616,11.90999984741211,0.37997233867645264,0.3700000047683716
1691585364.764296,19766380,51.6417304,-2.5256161,11.889999389648438,0.3577841818332672,0.3499999940395355
1691585364.802967,19805051,51.6417302,-2.5256161,11.889999389648438,0.3577841818332672,0.3499999940395355
1691585364.843284,19845368,51.6417302,-2.5256162,11.889999389648438,0.3577841818332672,0.3499999940395355
1691585364.883295,19885379,51.6417302,-2.5256162,11.989999771118164,0.4576309323310852,0.44999998807907104
1691585364.922828,19924912,51.6417301,-2.5256162,11.989999771118164,0.4576309323310852,0.44999998807907104
1691585364.9643059,19966390,51.6417301,-2.5256163,11.819999694824219,0.28012558817863464,0.2800000011920929
1691585365.0028539,20004938,51.6417302,-2.5256162,11.819999694824219,0.28012558817863464,0.2800000011920929
1691585365.043316,20045400,51.6417302,-2.5256161,11.819999694824219,0.28012558817863464,0.2800000011920929
1691585365.083263,20085347,51.6417302,-2.5256161,11.829999923706055,0.2967667281627655,0.28999999165534973
1691585365.122672,20124756,51.6417302,-2.5256161,11.829999923706055,0.2967667281627655,0.28999999165534973
1691585365.164325,20166409,51.6417302,-2.5256161,11.880000114440918,0.34391656517982483,0.3400000035762787
1691585365.20337,20205454,51.6417301,-2.5256164,11.880000114440918,0.34391656517982483,0.3400000035762787
1691585365.243881,20245965,51.6417301,-2.5256164,11.880000114440918,0.34391656517982483,0.3400000035762787
1691585365.283833,20285917,51.6417301,-2.5256164,11.819999694824219,0.28012558817863464,0.2800000011920929
1691585365.322845,20324929,51.6417301,-2.5256164,11.819999694824219,0.28012558817863464,0.2800000011920929
1691585365.364283,20366367,51.6417301,-2.5256164,11.84000015258789,0.30508729815483093,0.29999998211860657
1691585365.402821,20404905,51.6417301,-2.5256165,11.84000015258789,0.30508729815483093,0.29999998211860657
1691585365.4435909,20445675,51.6417301,-2.5256166,11.84000015258789,0.30508729815483093,0.29999998211860657
1691585365.483322,20485406,51.6417301,-2.5256166,11.880000114440918,0.3494636118412018,0.3400000035762787
1691585365.5226579,20524742,51.6417301,-2.5256166,11.880000114440918,0.3494636118412018,0.3400000035762787
1691585365.564173,20566257,51.6417301,-2.5256166,11.679999351501465,0.14422307908535004,0.14000000059604645
1691585365.6028209,20604905,51.6417301,-2.5256166,11.679999351501465,0.14422307908535004,0.14000000059604645
1691585365.6433399,20645424,51.6417302,-2.5256163,11.679999351501465,0.14422307908535004,0.14000000059604645
1691585365.683761,20685845,51.6417302,-2.5256163,11.729999542236328,0.199693500995636,0.1899999976158142
1691585365.723177,20725261,51.6417302,-2.5256162,11.729999542236328,0.199693500995636,0.1899999976158142
1691585365.764332,20766416,51.6417302,-2.5256162,11.670000076293945,0.13867603242397308,0.12999999523162842
1691585365.803359,20805443,51.6417302,-2.5256162,11.670000076293945,0.13867603242397308,0.12999999523162842
1691585365.843316,20845400,51.6417302,-2.5256163,11.670000076293945,0.13867603242397308,0.12999999523162842
1691585365.883308,20885392,51.6417302,-2.5256163,11.880000114440918,0.3466900885105133,0.3400000035762787
1691585365.922576,20924660,51.6417302,-2.5256163,11.880000114440918,0.3466900885105133,0.3400000035762787
1691585365.9643059,20966390,51.6417302,-2.5256163,11.84000015258789,0.307860791683197,0.29999998211860657
1691585366.002806,21004890,51.6417302,-2.5256164,11.84000015258789,0.307860791683197,0.29999998211860657
1691585366.043314,21045398,51.6417302,-2.5256164,11.84000015258789,0.307860791683197,0.29999998211860657
1691585366.083273,21085357,51.6417302,-2.5256164,11.809999465942383,0.2745785415172577,0.26999998092651367
1691585366.122647,21124731,51.6417302,-2.5256164,11.809999465942383,0.2745785415172577,0.26999998092651367
1691585366.164305,21166389,51.6417302,-2.5256164,11.869999885559082,0.3328225016593933,0.32999998331069946
1691585366.203501,21205585,51.6417302,-2.5256165,11.869999885559082,0.3328225016593933,0.32999998331069946
1691585366.243878,21245962,51.6417302,-2.5256166,11.869999885559082,0.3328225016593933,0.32999998331069946
1691585366.28383,21285914,51.6417302,-2.5256166,11.829999923706055,0.2967667281627655,0.28999999165534973
1691585366.322743,21324827,51.6417302,-2.5256166,11.829999923706055,0.2967667281627655,0.28999999165534973
1691585366.364261,21366345,51.6417302,-2.5256167,11.769999504089355,0.23020222783088684,0.22999998927116394
1691585366.402774,21404858,51.6417302,-2.5256167,11.769999504089355,0.23020222783088684,0.22999998927116394
1691585366.44366,21445744,51.6417302,-2.5256167,11.769999504089355,0.23020222783088684,0.22999998927116394
1691585366.483273,21485357,51.6417302,-2.5256167,11.699999809265137,0.16641125082969666,0.1599999964237213
1691585366.5226529,21524737,51.6417302,-2.5256167,11.699999809265137,0.16641125082969666,0.1599999964237213
1691585366.564195,21566279,51.6417302,-2.5256167,11.859999656677246,0.3217284083366394,0.3199999928474426
1691585366.602836,21604920,51.6417303,-2.5256167,11.859999656677246,0.3217284083366394,0.3199999928474426
1691585366.643189,21645273,51.6417303,-2.5256167,11.859999656677246,0.3217284083366394,0.3199999928474426
1691585366.683777,21685861,51.6417303,-2.5256167,11.809999465942383,0.27735206484794617,0.26999998092651367
1691585366.723178,21725262,51.6417303,-2.5256167,11.809999465942383,0.27735206484794617,0.26999998092651367
1691585366.76428,21766364,51.6417303,-2.5256167,11.809999465942383,0.2745785415172577,0.26999998092651367
1691585366.802869,21804953,51.6417302,-2.5256169,11.809999465942383,0.2745785415172577,0.26999998092651367
1691585366.843327,21845411,51.6417302,-2.5256169,11.809999465942383,0.2745785415172577,0.26999998092651367
1691585366.883205,21885289,51.6417302,-2.5256169,11.739999771118164,0.20246700942516327,0.19999998807907104
1691585366.922645,21924729,51.6417302,-2.5256169,11.739999771118164,0.20246700942516327,0.19999998807907104
1691585366.964286,21966370,51.6417302,-2.5256169,11.719999313354492,0.1858258843421936,0.17999999225139618
1691585367.0028,22004884,51.6417301,-2.5256171,11.719999313354492,0.1858258843421936,0.17999999225139618
1691585367.043258,22045342,51.6417301,-2.5256171,11.719999313354492,0.1858258843421936,0.17999999225139618
1691585367.08325,22085334,51.6417301,-2.5256171,11.59000015258789,0.052696894854307175,0.04999999701976776
1691585367.122556,22124640,51.64173,-2.5256172,11.59000015258789,0.052696894854307175,0.04999999701976776
1691585367.164292,22166376,51.64173,-2.5256172,11.739999771118164,0.20524053275585175,0.19999998807907104
1691585367.203366,22205450,51.6417301,-2.5256172,11.739999771118164,0.20524053275585175,0.19999998807907104
1691585367.244011,22246095,51.6417301,-2.5256172,11.739999771118164,0.20524053275585175,0.19999998807907104
1691585367.283811,22285895,51.6417301,-2.5256172,11.769999504089355,0.23852278292179108,0.22999998927116394
1691585367.322702,22324786,51.6417301,-2.5256172,11.769999504089355,0.23852278292179108,0.22999998927116394
1691585367.36428,22366364,51.6417301,-2.5256172,11.84000015258789,0.30231377482414246,0.29999998211860657
1691585367.40281,22404894,51.64173,-2.5256174,11.84000015258789,0.30231377482414246,0.29999998211860657
1691585367.4436,22445684,51.64173,-2.5256175,11.84000015258789,0.30231377482414246,0.29999998211860657
1691585367.483198,22485282,51.64173,-2.5256175,11.84000015258789,0.307860791683197,0.29999998211860657
1691585367.522593,22524677,51.64173,-2.5256175,11.84000015258789,0.307860791683197,0.29999998211860657
1691585367.564177,22566261,51.64173,-2.5256176,11.75999927520752,0.2218816578388214,0.2199999988079071
1691585367.602758,22604842,51.64173,-2.5256176,11.75999927520752,0.2218816578388214,0.2199999988079071
1691585367.643277,22645361,51.64173,-2.5256176,11.75999927520752,0.2218816578388214,0.2199999988079071
1691585367.683691,22685775,51.64173,-2.5256176,11.889999389648438,0.35223713517189026,0.3499999940395355
1691585367.723088,22725172,51.64173,-2.5256176,11.889999389648438,0.35223713517189026,0.3499999940395355
1691585367.764222,22766306,51.64173,-2.5256176,11.960000038146973,0.4215751588344574,0.41999998688697815
1691585367.802857,22804941,51.6417299,-2.5256178,11.960000038146973,0.4215751588344574,0.41999998688697815
1691585367.843255,22845339,51.6417299,-2.5256178,11.960000038146973,0.4215751588344574,0.41999998688697815
1691585367.8832629,22885347,51.6417299,-2.5256178,11.960000038146973,0.4243486821651459,0.41999998688697815
1691585367.922622,22924706,51.6417299,-2.5256178,11.960000038146973,0.4243486821651459,0.41999998688697815
1691585367.964188,22966272,51.6417299,-2.5256178,12.0,0.4687249958515167,0.4599999785423279
1691585368.002861,23004945,51.6417299,-2.5256178,12.0,0.4687249958515167,0.4599999785423279
1691585368.043308,23045392,51.6417299,-2.525618,12.0,0.4687249958515167,0.4599999785423279
1691585368.083198,23085282,51.6417299,-2.525618,12.050000190734863,0.51310133934021,0.5099999904632568
1691585368.122585,23124669,51.6417299,-2.525618,12.050000190734863,0.51310133934021,0.5099999904632568
1691585368.16431,23166394,51.6417299,-2.525618,11.789999961853027,0.2579374313354492,0.25
1691585368.203361,23205445,51.6417298,-2.5256182,11.789999961853027,0.2579374313354492,0.25
1691585368.244058,23246142,51.6417298,-2.5256182,11.789999961853027,0.2579374313354492,0.25
1691585368.283757,23285841,51.6417298,-2.5256183,11.929999351501465,0.3966134786605835,0.38999998569488525
1691585368.322656,23324740,51.6417298,-2.5256183,11.929999351501465,0.3966134786605835,0.38999998569488525
1691585368.364176,23366260,51.6417298,-2.5256183,11.869999885559082,0.33836954832077026,0.32999998331069946
1691585368.402764,23404848,51.6417298,-2.5256185,11.869999885559082,0.33836954832077026,0.32999998331069946
1691585368.443583,23445667,51.6417298,-2.5256185,11.869999885559082,0.33836954832077026,0.32999998331069946
1691585368.483252,23485336,51.6417298,-2.5256185,11.869999885559082,0.3355960249900818,0.32999998331069946
1691585368.522677,23524761,51.6417298,-2.5256185,11.869999885559082,0.3355960249900818,0.32999998331069946
1691585368.564154,23566238,51.6417298,-2.5256185,11.889999389648438,0.35223713517189026,0.3499999940395355
1691585368.602751,23604835,51.6417298,-2.5256186,11.889999389648438,0.35223713517189026,0.3499999940395355
1691585368.643202,23645286,51.6417298,-2.5256186,11.889999389648438,0.35223713517189026,0.3499999940395355
1691585368.68369,23685774,51.6417298,-2.5256186,11.75999927520752,0.2246551811695099,0.2199999988079071
1691585368.72316,23725244,51.6417298,-2.5256186,11.75999927520752,0.2246551811695099,0.2199999988079071
1691585368.764683,23766767,51.6417298,-2.5256186,11.800000190734863,0.26348447799682617,0.25999999046325684
1691585368.802789,23804873,51.6417297,-2.5256188,11.800000190734863,0.26348447799682617,0.25999999046325684
1691585368.843309,23845393,51.6417297,-2.5256188,11.800000190734863,0.26348447799682617,0.25999999046325684
1691585368.88326,23885344,51.6417297,-2.5256188,11.800000190734863,0.2607109546661377,0.25999999046325684
1691585368.922577,23924661,51.6417297,-2.5256187,11.800000190734863,0.2607109546661377,0.25999999046325684
1691585368.964243,23966327,51.6417297,-2.5256187,11.800000190734863,0.26348447799682617,0.25999999046325684
1691585369.00279,24004874,51.6417298,-2.5256189,11.800000190734863,0.26348447799682617,0.25999999046325684
1691585369.0432029,24045287,51.6417298,-2.5256189,11.800000190734863,0.26348447799682617,0.25999999046325684
1691585369.083269,24085353,51.6417298,-2.5256189,11.829999923706055,0.293993204832077,0.28999999165534973
1691585369.122595,24124679,51.6417298,-2.5256189,11.829999923706055,0.293993204832077,0.28999999165534973
1691585369.164301,24166385,51.6417298,-2.5256189,11.670000076293945,0.1359025239944458,0.12999999523162842
1691585369.203343,24205427,51.6417297,-2.5256192,11.670000076293945,0.1359025239944458,0.12999999523162842
1691585369.243919,24246003,51.6417297,-2.5256192,11.670000076293945,0.1359025239944458,0.12999999523162842
1691585369.283765,24285849,51.6417297,-2.5256192,11.800000190734863,0.2607109546661377,0.25999999046325684
1691585369.322746,24324830,51.6417297,-2.5256192,11.800000190734863,0.2607109546661377,0.25999999046325684
1691585369.364255,24366339,51.6417297,-2.5256192,11.710000038146973,0.17195828258991241,0.17000000178813934
1691585369.402689,24404773,51.6417297,-2.5256194,11.710000038146973,0.17195828258991241,0.17000000178813934
1691585369.443574,24445658,51.6417297,-2.5256194,11.710000038146973,0.17195828258991241,0.17000000178813934
1691585369.483269,24485353,51.6417297,-2.5256195,11.719999313354492,0.1858258843421936,0.17999999225139618
1691585369.522558,24524642,51.6417297,-2.5256195,11.719999313354492,0.1858258843421936,0.17999999225139618
1691585369.5641599,24566244,51.6417297,-2.5256195,11.920000076293945,0.3827458620071411,0.3799999952316284
1691585369.602773,24604857,51.6417296,-2.5256196,11.920000076293945,0.3827458620071411,0.3799999952316284
1691585369.643266,24645350,51.6417296,-2.5256196,11.920000076293945,0.3827458620071411,0.3799999952316284
1691585369.683701,24685785,51.6417296,-2.5256196,11.769999504089355,0.23852278292179108,0.22999998927116394
1691585369.723169,24725253,51.6417296,-2.5256196,11.769999504089355,0.23852278292179108,0.22999998927116394
1691585369.764279,24766363,51.6417296,-2.5256197,11.960000038146973,0.4215751588344574,0.41999998688697815
1691585369.802848,24804932,51.6417296,-2.5256198,11.960000038146973,0.4215751588344574,0.41999998688697815
1691585369.843293,24845377,51.6417296,-2.5256198,11.960000038146973,0.4215751588344574,0.41999998688697815
1691585369.883181,24885265,51.6417296,-2.5256198,12.0,0.46595150232315063,0.4599999785423279
1691585369.922589,24924673,51.6417296,-2.5256198,12.0,0.46595150232315063,0.4599999785423279
1691585369.964293,24966377,51.6417296,-2.5256198,11.9399995803833,0.407707542181015,0.3999999761581421
1691585370.00283,25004914,51.6417296,-2.5256198,11.9399995803833,0.407707542181015,0.3999999761581421
1691585370.043303,25045387,51.6417295,-2.5256199,11.9399995803833,0.407707542181015,0.3999999761581421
1691585370.083265,25085349,51.6417295,-2.5256199,11.809999465942383,0.2718050479888916,0.26999998092651367
1691585370.122575,25124659,51.6417295,-2.5256199,11.809999465942383,0.2718050479888916,0.26999998092651367
1691585370.164289,25166373,51.6417295,-2.5256199,12.00999927520752,0.47981908917427063,0.4699999988079071
1691585370.203354,25205438,51.6417295,-2.5256201,12.00999927520752,0.47981908917427063,0.4699999988079071
1691585370.244001,25246085,51.6417295,-2.5256201,12.00999927520752,0.47981908917427063,0.4699999988079071
1691585370.283774,25285858,51.6417295,-2.5256201,11.699999809265137,0.16918477416038513,0.1599999964237213
1691585370.322856,25324940,51.6417295,-2.5256201,11.699999809265137,0.16918477416038513,0.1599999964237213
1691585370.3641,25366184,51.6417295,-2.5256201,11.84000015258789,0.307860791683197,0.29999998211860657
1691585370.402833,25404917,51.6417295,-2.5256201,11.84000015258789,0.307860791683197,0.29999998211860657
1691585370.443585,25445669,51.6417295,-2.5256202,11.84000015258789,0.307860791683197,0.29999998211860657
1691585370.483173,25485257,51.6417295,-2.5256202,11.899999618530273,0.36333122849464417,0.35999998450279236
1691585370.522588,25524672,51.6417295,-2.5256202,11.899999618530273,0.36333122849464417,0.35999998450279236
1691585370.564203,25566287,51.6417295,-2.5256202,11.84000015258789,0.30231377482414246,0.29999998211860657
1691585370.604005,25606089,51.6417295,-2.5256203,11.84000015258789,-0.33000001311302185,0.29999998211860657
1691585370.643373,25645457,51.6417295,-2.5256203,10.899999618530273,-0.6377525329589844,-0.0077525656670331955
1691585370.683702,25685786,51.6417295,-2.5256203,10.899999618530273,-0.6372196674346924,-0.007219670340418816
1691585370.723094,25725178,51.6417295,-2.5256203,10.899999618530273,-0.6367092728614807,-0.006709305569529533
1691585370.763327,25765411,51.6417295,-2.5256202,10.899999618530273,-0.6361834406852722,-0.006183473393321037
1691585370.804811,25806895,51.6417295,-2.5256202,10.899999618530273,-0.6367825865745544,-0.006782619282603264
1691585370.843296,25845380,51.6417295,-2.5256202,10.899999618530273,-0.6383949518203735,-0.008394984528422356
1691585370.883208,25885292,51.6417295,-2.5256202,10.899999618530273,-0.6397033333778381,-0.009703366085886955
1691585370.922602,25924686,51.6417295,-2.5256203,10.889999389648438,-0.6408551335334778,-0.010855136439204216
1691585370.963278,25965362,51.6417295,-2.5256203,10.889999389648438,-0.6418426632881165,-0.011842666193842888
1691585371.004649,26006733,51.6417295,-2.5256203,10.889999389648438,-0.6431736350059509,-0.01317363791167736
1691585371.043293,26045377,51.6417295,-2.5256203,10.889999389648438,-0.644890308380127,-0.014890341088175774
1691585371.083247,26085331,51.6417295,-2.5256203,10.889999389648438,-0.6463478207588196,-0.0163478534668684
1691585371.122574,26124658,51.6417295,-2.5256203,10.889999389648438,-0.6476520895957947,-0.017652122303843498
1691585371.163353,26165437,51.6417295,-2.5256203,10.889999389648438,-0.6487829685211182,-0.018783001229166985
1691585371.205251,26207335,51.6417295,-2.5256204,10.880000114440918,-0.6503493785858154,-0.020349381491541862
1691585371.243855,26245939,51.6417295,-2.5256204,10.880000114440918,-0.6522985696792603,-0.022298572584986687
1691585371.2837489,26285833,51.6417295,-2.5256205,10.880000114440918,-0.6540438532829285,-0.0240438561886549
1691585371.322655,26324739,51.6417295,-2.5256205,10.880000114440918,-0.6556041240692139,-0.025604156777262688
1691585371.36354,26365624,51.6417295,-2.5256206,10.880000114440918,-0.6569838523864746,-0.02698388509452343
1691585371.404597,26406681,51.6417295,-2.5256206,10.880000114440918,-0.6589833498001099,-0.028983382508158684
1691585371.44358,26445664,51.6417295,-2.5256208,10.869999885559082,-0.6615448594093323,-0.03154486417770386
1691585371.483195,26485279,51.6417295,-2.5256208,10.869999885559082,-0.6638863682746887,-0.03388640284538269
1691585371.522565,26524649,51.6417295,-2.5256208,10.869999885559082,-0.6659801006317139,-0.03598013520240784
1691585371.563185,26565269,51.6417295,-2.5256208,10.869999885559082,-0.6678674817085266,-0.03786751627922058
1691585371.604559,26606643,51.6417295,-2.5256208,10.869999885559082,-0.6699198484420776,-0.03991985321044922
1691585371.643278,26645362,51.6417295,-2.5256209,10.859999656677246,-0.6720654368400574,-0.042065441608428955
1691585371.68359,26685674,51.6417295,-2.5256209,10.859999656677246,-0.6740438938140869,-0.044043928384780884
1691585371.723161,26725245,51.6417295,-2.5256209,10.859999656677246,-0.6758409142494202,-0.04584091901779175
1691585371.763289,26765373,51.6417295,-2.525621,10.859999656677246,-0.6774590611457825,-0.04745909571647644
1691585371.804663,26806747,51.6417295,-2.525621,10.859999656677246,-0.6795642375946045,-0.049564242362976074
1691585371.84328,26845364,51.6417295,-2.525621,10.84999942779541,-0.6820983290672302,-0.052098363637924194
1691585371.883259,26885343,51.6417295,-2.5256211,10.84999942779541,-0.6843864321708679,-0.0543864369392395
1691585371.9225519,26924636,51.6417295,-2.5256211,10.84999942779541,-0.6866709589958191,-0.056670963764190674
1691585371.963275,26965359,51.6417295,-2.5256211,10.84999942779541,-0.6887239813804626,-0.05872398614883423
1691585372.002844,27004928,51.6417295,-2.5256211,10.84000015258789,-0.6906197667121887,-0.0606197714805603
1691585372.043261,27045345,51.6417295,-2.5256212,10.84000015258789,-0.693872332572937,-0.06387236714363098
1691585372.083196,27085280,51.6417295,-2.5256212,10.84000015258789,-0.6967742443084717,-0.06677427887916565
1691585372.122592,27124676,51.6417295,-2.5256212,10.84000015258789,-0.6993328332901001,-0.06933283805847168
1691585372.163272,27165356,51.6417295,-2.5256212,10.829999923706055,-0.701727032661438,-0.07172706723213196
1691585372.205129,27207213,51.6417295,-2.5256213,10.829999923706055,-0.7049274444580078,-0.0749274492263794
1691585372.24401,27246094,51.6417295,-2.5256213,10.829999923706055,-0.7085065841674805,-0.07850661873817444
1691585372.283698,27285782,51.6417295,-2.5256213,10.819999694824219,-0.7118247747421265,-0.08182480931282043
1691585372.322681,27324765,51.6417295,-2.5256214,10.819999694824219,-0.7149519324302673,-0.08495193719863892
1691585372.363182,27365266,51.6417295,-2.5256214,10.819999694824219,-0.7176010012626648,-0.08760100603103638
1691585372.404573,27406657,51.6417295,-2.5256214,10.809999465942383,-0.720802366733551,-0.09080237150192261
1691585372.443589,27445673,51.6417295,-2.5256214,10.809999465942383,-0.7246084213256836,-0.09460845589637756
1691585372.483201,27485285,51.6417295,-2.5256215,10.809999465942383,-0.7282710671424866,-0.09827107191085815
1691585372.52253,27524614,51.6417295,-2.5256215,10.800000190734863,-0.7316228151321411,-0.1016228199005127
1691585372.56318,27565264,51.6417295,-2.5256215,10.800000190734863,-0.7347206473350525,-0.10472063720226288
1691585372.604588,27606672,51.6417295,-2.5256216,10.800000190734863,-0.7381103038787842,-0.10811032354831696
1691585372.6431959,27645280,51.6417295,-2.5256216,10.789999961853027,-0.7417516112327576,-0.11175160109996796
1691585372.683685,27685769,51.6417295,-2.5256216,10.789999961853027,-0.7451934814453125,-0.11519351601600647
1691585372.723099,27725183,51.6417295,-2.5256217,10.789999961853027,-0.7484288811683655,-0.11842890083789825
1691585372.763263,27765347,51.6417295,-2.5256217,10.779999732971191,-0.7514171600341797,-0.12141719460487366
1691585372.804696,27806780,51.6417295,-2.5256217,10.779999732971191,-0.7551886439323425,-0.1251886487007141
1691585372.843293,27845377,51.6417295,-2.5256218,10.779999732971191,-0.7595471143722534,-0.1295471489429474
1691585372.883178,27885262,51.6417295,-2.5256218,10.769999504089355,-0.7636056542396545,-0.13360565900802612
1691585372.9226189,27924703,51.6417295,-2.5256218,10.769999504089355,-0.7674055099487305,-0.13740552961826324
1691585372.963303,27965387,51.6417295,-2.5256218,10.760000228881836,-0.7709801197052002,-0.14098012447357178
1691585373.004548,28006632,51.6417295,-2.5256218,10.760000228881836,-0.7750323414802551,-0.1450323760509491
1691585373.043288,28045372,51.6417295,-2.5256219,10.760000228881836,-0.7795442938804626,-0.14954431354999542
1691585373.083271,28085355,51.6417295,-2.5256219,10.75,-0.7837572693824768,-0.1537572592496872
1691585373.1225479,28124632,51.6417295,-2.5256219,10.75,-0.7877196073532104,-0.15771961212158203
1691585373.163312,28165396,51.6417295,-2.5256219,10.739999771118164,-0.7914720773696899,-0.1614721119403839
1691585373.205286,28207370,51.6417295,-2.525622,10.739999771118164,-0.7950214147567749,-0.1650214046239853
1691585373.243875,28245959,51.6417295,-2.525622,10.739999771118164,-0.7983911037445068,-0.1683911234140396
1691585373.283667,28285751,51.6417295,-2.525622,10.729999542236328,-0.8015715479850769,-0.17157158255577087
1691585373.322766,28324850,51.6417295,-2.525622,10.729999542236328,-0.80457603931427,-0.1745760291814804
1691585373.363257,28365341,51.6417295,-2.5256221,10.729999542236328,-0.8074965476989746,-0.177496537566185
1691585373.402647,28404731,51.6417295,-2.5256221,10.719999313354492,-0.8102980852127075,-0.1802981048822403
1691585373.443688,28445772,51.6417295,-2.5256221,10.719999313354492,-0.8129788041114807,-0.18297883868217468
1691585373.483308,28485392,51.6417295,-2.5256221,10.719999313354492,-0.8155901432037354,-0.18559013307094574
1691585373.522595,28524679,51.6417295,-2.5256221,10.719999313354492,-0.8186236023902893,-0.18862362205982208
1691585373.563266,28565350,51.6417295,-2.5256222,10.710000038146973,-0.8214997053146362,-0.19149969518184662
1691585373.602603,28604687,51.6417295,-2.5256222,10.710000038146973,-0.824289858341217,-0.19428984820842743
1691585373.643312,28645396,51.6417295,-2.5256222,10.710000038146973,-0.8269991278648376,-0.19699913263320923
1691585373.683744,28685828,51.6417295,-2.5256222,10.710000038146973,-0.829599916934967,-0.19959990680217743
1691585373.723096,28725180,51.6417295,-2.5256222,10.699999809265137,-0.8321471214294434,-0.20214712619781494
1691585373.763362,28765446,51.6417295,-2.5256222,10.699999809265137,-0.8346684575080872,-0.20466849207878113
1691585373.802815,28804899,51.6417295,-2.5256222,10.699999809265137,-0.8371225595474243,-0.2071225643157959
1691585373.843257,28845341,51.6417295,-2.5256223,10.6899995803833,-0.8402739763259888,-0.21027396619319916
1691585373.883252,28885336,51.6417295,-2.5256223,10.6899995803833,-0.8432855010032654,-0.21328549087047577
1691585373.922592,28924676,51.6417295,-2.5256223,10.6899995803833,-0.8462134003639221,-0.2162134051322937
1691585373.963315,28965399,51.6417295,-2.5256223,10.6899995803833,-0.8490660786628723,-0.21906611323356628
1691585374.002773,29004857,51.6417295,-2.5256223,10.679999351501465,-0.8517983555793762,-0.2217983901500702
1691585374.043284,29045368,51.6417295,-2.5256224,10.679999351501465,-0.8541859984397888,-0.2241860181093216
1691585374.083169,29085253,51.6417295,-2.5256224,10.679999351501465,-0.8565945625305176,-0.22659455239772797
1691585374.122572,29124656,51.6417295,-2.5256224,10.679999351501465,-0.8589950203895569,-0.22899505496025085
1691585374.163342,29165426,51.6417295,-2.5256225,10.670000076293945,-0.8614124655723572,-0.23141247034072876
1691585374.203267,29205351,51.6417295,-2.5256225,10.670000076293945,-0.8637850880622864,-0.23378507792949677
1691585374.244016,29246100,51.6417295,-2.5256226,10.670000076293945,-0.8660537600517273,-0.23605374991893768
1691585374.283793,29285877,51.6417295,-2.5256226,10.670000076293945,-0.8683556914329529,-0.23835572600364685
1691585374.322664,29324748,51.6417295,-2.5256227,10.65999984741211,-0.8706797957420349,-0.24067983031272888
1691585374.363274,29365358,51.6417295,-2.5256227,10.65999984741211,-0.873013973236084,-0.24301396310329437
1691585374.402769,29404853,51.6417295,-2.5256228,10.65999984741211,-0.8753414750099182,-0.245341494679451
1691585374.443364,29445448,51.6417295,-2.5256228,10.65999984741211,-0.8780830502510071,-0.24808304011821747
1691585374.483271,29485355,51.6417295,-2.5256229,10.649999618530273,-0.8807445168495178,-0.2507445514202118
1691585374.5225859,29524670,51.6417295,-2.5256229,10.649999618530273,-0.8833945989608765,-0.25339460372924805
1691585374.5631819,29565266,51.6417295,-2.5256229,10.649999618530273,-0.8860911726951599,-0.2560911774635315
1691585374.602666,29604750,51.6417295,-2.525623,10.649999618530273,-0.8888545632362366,-0.25885459780693054
1691585374.643313,29645397,51.6417295,-2.525623,10.639999389648438,-0.8906932473182678,-0.2606932520866394
1691585374.6836839,29685768,51.6417295,-2.5256231,10.639999389648438,-0.8925719261169434,-0.26257196068763733
1691585374.723199,29725283,51.6417295,-2.5256231,10.639999389648438,-0.8944604992866516,-0.2644605040550232
1691585374.763328,29765412,51.6417295,-2.5256231,10.639999389648438,-0.8963208794593811,-0.2663209140300751
1691585374.8028,29804884,51.6417295,-2.5256232,10.639999389648438,-0.8982797265052795,-0.2682797610759735
1691585374.8433099,29845394,51.6417296,-2.5256232,10.639999389648438,-0.899972677230835,-0.26997271180152893
1691585374.8832629,29885347,51.6417296,-2.5256233,10.630000114440918,-0.9015247821807861,-0.2715248167514801
1691585374.922558,29924642,51.6417296,-2.5256233,10.630000114440918,-0.9025898575782776,-0.27258986234664917
1691585374.9633179,29965402,51.6417296,-2.5256234,10.630000114440918,-0.9033541679382324,-0.2733542025089264
1691585375.002693,30004777,51.6417296,-2.5256234,10.630000114440918,-0.9041037559509277,-0.2741037905216217
1691585375.04325,30045334,51.6417297,-2.5256235,10.630000114440918,-0.904961347579956,-0.27496138215065
1691585375.083254,30085338,51.6417297,-2.5256235,10.630000114440918,-0.9057890176773071,-0.2757890224456787
1691585375.122576,30124660,51.6417298,-2.5256236,10.630000114440918,-0.9069660305976868,-0.27696606516838074
1691585375.1632779,30165362,51.6417298,-2.5256237,10.630000114440918,-0.9085261225700378,-0.2785261571407318
1691585375.203289,30205373,51.6417299,-2.5256237,10.630000114440918,-0.9098443984985352,-0.27984440326690674
1691585375.243833,30245917,51.6417299,-2.5256239,10.619999885559082,-0.9100688099861145,-0.2800688147544861
1691585375.283681,30285765,51.64173,-2.525624,10.619999885559082,-0.9111889004707336,-0.2811889052391052
1691585375.32292,30325004,51.64173,-2.5256242,10.619999885559082,-0.9130866527557373,-0.2830866873264313
1691585375.363278,30365362,51.6417301,-2.5256244,10.619999885559082,-0.9147394895553589,-0.28473949432373047
1691585375.40266,30404744,51.6417301,-2.5256246,10.619999885559082,-0.9156590104103088,-0.2856590151786804
1691585375.44333,30445414,51.6417302,-2.5256248,10.619999885559082,-0.9155382513999939,-0.28553828597068787
1691585375.483191,30485275,51.6417302,-2.525625,10.619999885559082,-0.9161101579666138,-0.28611016273498535
1691585375.52252,30524604,51.6417303,-2.5256252,10.619999885559082,-0.9165079593658447,-0.2865079939365387
1691585375.563172,30565256,51.6417304,-2.5256254,10.619999885559082,-0.9164689183235168,-0.2864689230918884
1691585375.602692,30604776,51.6417304,-2.5256256,10.619999885559082,-0.9164464473724365,-0.2864464521408081
1691585375.643277,30645361,51.6417304,-2.5256258,10.619999885559082,-0.9165622591972351,-0.2865622639656067
1691585375.6836429,30685727,51.6417305,-2.525626,10.619999885559082,-0.9171319007873535,-0.2871319055557251
1691585375.723171,30725255,51.6417305,-2.5256262,10.619999885559082,-0.9182114005088806,-0.2882114052772522
1691585375.763195,30765279,51.6417305,-2.5256264,10.609999656677246,-0.9202288389205933,-0.29022884368896484
1691585375.802808,30804892,51.6417305,-2.5256267,10.609999656677246,-0.9232028722763062,-0.2932029068470001
1691585375.843304,30845388,51.6417306,-2.525627,10.609999656677246,-0.9254941344261169,-0.2954941391944885
1691585375.883165,30885249,51.6417306,-2.5256273,10.609999656677246,-0.9268999695777893,-0.2968999743461609
1691585375.922556,30924640,51.6417306,-2.5256275,10.609999656677246,-0.927937924861908,-0.29793795943260193
1691585375.963272,30965356,51.6417307,-2.5256278,10.609999656677246,-0.9290524125099182,-0.2990524470806122
1691585376.002819,31004903,51.6417307,-2.5256281,10.59999942779541,-0.9311270117759705,-0.30112701654434204
1691585376.04329,31045374,51.6417308,-2.5256284,10.59999942779541,-0.9335139393806458,-0.30351394414901733
1691585376.0831969,31085281,51.6417308,-2.5256287,10.59999942779541,-0.9358649849891663,-0.30586501955986023
1691585376.122555,31124639,51.6417309,-2.525629,10.59999942779541,-0.9390421509742737,-0.30904215574264526
1691585376.163298,31165382,51.6417309,-2.5256293,10.59000015258789,-0.9425583481788635,-0.3125583827495575
1691585376.203253,31205337,51.6417309,-2.5256296,10.59000015258789,-0.9450005292892456,-0.3150005638599396
1691585376.243849,31245933,51.641731,-2.5256299,10.59000015258789,-0.9446862936019897,-0.31468629837036133
1691585376.2838,31285884,51.641731,-2.5256301,10.59000015258789,-0.9440117478370667,-0.3140117824077606
1691585376.322651,31324735,51.641731,-2.5256304,10.59000015258789,-0.945374071598053,-0.31537407636642456
1691585376.363086,31365170,51.641731,-2.5256306,10.59000015258789,-0.9479885697364807,-0.3179885745048523
1691585376.402687,31404771,51.641731,-2.5256308,10.59000015258789,-0.9496467709541321,-0.31964677572250366
1691585376.443358,31445442,51.641731,-2.525631,10.579999923706055,-0.9503381252288818,-0.3203381597995758
1691585376.483119,31485203,51.641731,-2.5256312,10.579999923706055,-0.9510802626609802,-0.3210802674293518
1691585376.5225499,31524634,51.641731,-2.5256314,10.579999923706055,-0.9524888396263123,-0.32248884439468384
1691585376.563181,31565265,51.641731,-2.5256317,10.579999923706055,-0.9550906419754028,-0.3250906765460968
1691585376.602561,31604645,51.641731,-2.5256319,10.579999923706055,-0.9585989713668823,-0.3285989761352539
1691585376.6431959,31645280,51.641731,-2.5256321,10.569999694824219,-0.9612768888473511,-0.33127689361572266
1691585376.683596,31685680,51.641731,-2.5256322,10.569999694824219,-0.9627466797828674,-0.3327467143535614
1691585376.723028,31725112,51.641731,-2.5256324,10.569999694824219,-0.9640968441963196,-0.33409687876701355
1691585376.763186,31765270,51.641731,-2.5256325,10.569999694824219,-0.9652237892150879,-0.3352237939834595
1691585376.802705,31804789,51.641731,-2.5256326,10.569999694824219,-0.966145932674408,-0.33614593744277954
1691585376.843155,31845239,51.6417309,-2.5256327,10.569999694824219,-0.9683144092559814,-0.3383144438266754
1691585376.883145,31885229,51.6417309,-2.5256328,10.559999465942383,-0.9715564250946045,-0.3415564298629761
1691585376.922518,31924602,51.6417309,-2.525633,10.559999465942383,-0.9755291938781738,-0.3455292284488678
1691585376.963155,31965239,51.6417309,-2.5256331,10.559999465942383,-0.979054868221283,-0.34905490279197693
1691585377.00267,32004754,51.6417308,-2.5256332,10.550000190734863,-0.9820380210876465,-0.35203802585601807
1691585377.04325,32045334,51.6417308,-2.5256333,10.550000190734863,-0.9841925501823425,-0.3541925549507141
1691585377.083142,32085226,51.6417308,-2.5256334,10.550000190734863,-0.9864776730537415,-0.35647767782211304
1691585377.122529,32124613,51.6417308,-2.5256335,10.550000190734863,-0.9885758757591248,-0.3585759103298187
1691585377.163275,32165359,51.6417307,-2.5256336,10.539999961853027,-0.9910080432891846,-0.36100804805755615
1691585377.203326,32205410,51.6417307,-2.5256336,10.539999961853027,-0.994347870349884,-0.3643478751182556
1691585377.24385,32245934,51.6417307,-2.5256337,10.539999961853027,-0.997934877872467,-0.3679348826408386
1691585377.283761,32285845,51.6417307,-2.5256338,10.529999732971191,-1.0013020038604736,-0.3713019788265228
1691585377.322567,32324651,51.6417307,-2.5256338,10.529999732971191,-1.0044296979904175,-0.37442976236343384
1691585377.363198,32365282,51.6417306,-2.5256339,10.529999732971191,-1.0072417259216309,-0.37724173069000244
1691585377.402666,32404750,51.6417305,-2.5256339,10.529999732971191,-1.009628415107727,-0.379628449678421
1691585377.443367,32445451,51.6417305,-2.525634,10.519999504089355,-1.0117887258529663,-0.38178879022598267
1691585377.483177,32485261,51.6417304,-2.525634,10.519999504089355,-1.013719916343689,-0.38371992111206055
1691585377.522557,32524641,51.6417303,-2.5256341,10.519999504089355,-1.015430212020874,-0.385430246591568
1691585377.563099,32565183,51.6417302,-2.5256341,10.519999504089355,-1.0172969102859497,-0.3872969448566437
1691585377.6027489,32604833,51.6417301,-2.5256341,10.519999504089355,-1.0193300247192383,-0.38933002948760986
1691585377.643271,32645355,51.6417301,-2.5256342,10.510000228881836,-1.0215891599655151,-0.3915892243385315
1691585377.683764,32685848,51.64173,-2.5256343,10.510000228881836,-1.0248594284057617,-0.3948594629764557
1691585377.723075,32725159,51.6417299,-2.5256343,10.510000228881836,-1.028028130531311,-0.3980281949043274
1691585377.763287,32765371,51.6417298,-2.5256344,10.5,-1.0303343534469604,-0.4003343880176544
1691585377.802679,32804763,51.6417297,-2.5256344,10.5,-1.0320273637771606,-0.4020273983478546
1691585377.843206,32845290,51.6417297,-2.5256345,10.5,-1.0331276655197144,-0.40312767028808594
1691585377.88317,32885254,51.6417296,-2.5256346,10.5,-1.0349925756454468,-0.40499261021614075
1691585377.922508,32924592,51.6417295,-2.5256347,10.5,-1.0367217063903809,-0.40672174096107483
1691585377.963202,32965286,51.6417293,-2.5256347,10.5,-1.0378848314285278,-0.4078848659992218
1691585378.002695,33004779,51.6417292,-2.5256348,10.5,-1.0386977195739746,-0.4086977541446686
1691585378.043165,33045249,51.641729,-2.5256348,10.5,-1.0391594171524048,-0.409159392118454
1691585378.083155,33085239,51.6417289,-2.5256348,10.5,-1.0395251512527466,-0.40952518582344055
1691585378.122552,33124636,51.6417287,-2.5256348,10.5,-1.0384643077850342,-0.4084642827510834
1691585378.1632469,33165331,51.6417285,-2.5256349,10.5,-1.0382320880889893,-0.40823206305503845
1691585378.203203,33205287,51.6417283,-2.5256349,10.5,-1.0394939184188843,-0.40949392318725586
1691585378.2438989,33245983,51.6417281,-2.525635,10.489999771118164,-1.042466640472412,-0.4124666154384613
1691585378.283681,33285765,51.641728,-2.525635,10.489999771118164,-1.0450286865234375,-0.4150286912918091
1691585378.322599,33324683,51.6417278,-2.5256351,10.489999771118164,-1.046764850616455,-0.4167648255825043
1691585378.363164,33365248,51.6417277,-2.5256352,10.489999771118164,-1.0491242408752441,-0.4191242754459381
1691585378.402854,33404938,51.6417275,-2.5256353,10.479999542236328,-1.052519679069519,-0.4225197434425354
1691585378.442687,33444771,51.6417274,-2.5256354,10.479999542236328,-1.0564122200012207,-0.42641228437423706
1691585378.483165,33485249,51.6417272,-2.5256355,10.479999542236328,-1.0593658685684204,-0.4293658435344696
1691585378.522517,33524601,51.6417271,-2.5256357,10.469999313354492,-1.0625170469284058,-0.43251702189445496
1691585378.563155,33565239,51.641727,-2.5256358,10.469999313354492,-1.0662181377410889,-0.43621814250946045
1691585378.602654,33604738,51.6417268,-2.525636,10.469999313354492,-1.0697909593582153,-0.4397909939289093
1691585378.642574,33644658,51.6417266,-2.5256361,10.460000038146973,-1.0734851360321045,-0.4434851109981537
1691585378.683566,33685650,51.6417264,-2.5256363,10.460000038146973,-1.0775338411331177,-0.44753390550613403
1691585378.723169,33725253,51.6417261,-2.5256365,10.449999809265137,-1.0817939043045044,-0.45179393887519836
1691585378.763193,33765277,51.6417258,-2.5256366,10.449999809265137,-1.0832620859146118,-0.4532621502876282
1691585378.802762,33804846,51.6417256,-2.5256368,10.449999809265137,-1.0831142663955688,-0.4531143009662628
1691585378.842571,33844655,51.6417254,-2.525637,10.449999809265137,-1.0852409601211548,-0.45524096488952637
1691585378.883159,33885243,51.6417251,-2.5256373,10.449999809265137,-1.089253544807434,-0.45925360918045044
1691585378.922577,33924661,51.6417249,-2.5256375,10.4399995803833,-1.0932883024215698,-0.4632883071899414
1691585378.963269,33965353,51.6417247,-2.5256378,10.4399995803833,-1.0977492332458496,-0.4677492082118988
1691585379.002619,34004703,51.6417245,-2.525638,10.429999351501465,-1.1032047271728516,-0.47320470213890076
1691585379.042572,34044656,51.6417243,-2.5256383,10.429999351501465,-1.1071107387542725,-0.47711077332496643
1691585379.083208,34085292,51.6417241,-2.5256386,10.429999351501465,-1.1097056865692139,-0.47970569133758545
1691585379.122509,34124593,51.6417239,-2.5256389,10.420000076293945,-1.1120957136154175,-0.48209574818611145
1691585379.163661,34165745,51.6417237,-2.5256391,10.420000076293945,-1.1129851341247559,-0.48298510909080505
1691585379.203292,34205376,51.6417235,-2.5256395,10.420000076293945,-1.112406611442566,-0.4824066162109375
1691585379.243142,34245226,51.6417233,-2.5256398,10.420000076293945,-1.1123075485229492,-0.4823076128959656
1691585379.283773,34285857,51.641723,-2.5256402,10.420000076293945,-1.1130954027175903,-0.4830954372882843
1691585379.322668,34324752,51.6417227,-2.5256407,10.420000076293945,-1.1149542331695557,-0.48495420813560486
1691585379.363313,34365397,51.6417224,-2.5256411,10.420000076293945,-1.1178388595581055,-0.48783889412879944
1691585379.402763,34404847,51.6417221,-2.5256416,10.40999984741211,-1.1211318969726562,-0.49113190174102783
1691585379.442683,34444767,51.6417219,-2.5256421,10.40999984741211,-1.1254944801330566,-0.49549445509910583
1691585379.483199,34485283,51.6417216,-2.5256425,10.40999984741211,-1.129907250404358,-0.4999072253704071
1691585379.522549,34524633,51.6417213,-2.525643,10.399999618530273,-1.1324818134307861,-0.5024818181991577
1691585379.5631769,34565261,51.641721,-2.5256435,10.399999618530273,-1.1350781917572021,-0.5050781965255737
1691585379.602684,34604768,51.6417208,-2.5256439,10.399999618530273,-1.139561414718628,-0.5095614790916443
1691585379.642552,34644636,51.6417205,-2.5256443,10.389999389648438,-1.1449977159500122,-0.5149977207183838
1691585379.683752,34685836,51.6417202,-2.5256448,10.389999389648438,-1.1491787433624268,-0.5191787481307983
1691585379.723151,34725235,51.64172,-2.5256453,10.380000114440918,-1.1537094116210938,-0.5237094759941101
1691585379.763263,34765347,51.6417197,-2.5256458,10.380000114440918,-1.157565951347351,-0.5275659561157227
1691585379.802693,34804777,51.6417194,-2.5256463,10.380000114440918,-1.1587413549423218,-0.5287414193153381
1691585379.8425379,34844622,51.6417192,-2.5256469,10.369999885559082,-1.160864233970642,-0.5308642983436584
1691585379.883159,34885243,51.6417189,-2.5256476,10.369999885559082,-1.1646785736083984,-0.53467857837677
1691585379.92254,34924624,51.6417186,-2.5256482,10.359999656677246,-1.1706798076629639,-0.5406798124313354
1691585379.963172,34965256,51.6417183,-2.5256489,10.359999656677246,-1.1777080297470093,-0.5477080941200256
1691585380.00282,35004904,51.641718,-2.5256496,10.34999942779541,-1.183523416519165,-0.5535234212875366
1691585380.042543,35044627,51.6417177,-2.5256502,10.34999942779541,-1.1859314441680908,-0.5559314489364624
1691585380.083143,35085227,51.6417175,-2.5256509,10.34999942779541,-1.1862201690673828,-0.5562202334403992
1691585380.122516,35124600,51.6417173,-2.5256515,10.34999942779541,-1.188423991203308,-0.5584240555763245
1691585380.163273,35165357,51.6417171,-2.5256521,10.34000015258789,-1.1922125816345215,-0.5622125864028931
1691585380.203191,35205275,51.6417168,-2.5256527,10.34000015258789,-1.1958355903625488,-0.5658355951309204
1691585380.243195,35245279,51.6417167,-2.5256533,10.329999923706055,-1.201411485671997,-0.5714114904403687
1691585380.283705,35285789,51.6417165,-2.5256539,10.329999923706055,-1.2061861753463745,-0.5761862397193909
1691585380.322838,35324922,51.6417163,-2.5256546,10.319999694824219,-1.2100484371185303,-0.5800484418869019
1691585380.363099,35365183,51.6417161,-2.5256552,10.319999694824219,-1.212288498878479,-0.5822885036468506
1691585380.402752,35404836,51.6417158,-2.5256559,10.319999694824219,-1.2145798206329346,-0.5845798850059509
1691585380.442698,35444782,51.6417156,-2.5256567,10.319999694824219,-1.2198492288589478,-0.5898492336273193
1691585380.483169,35485253,51.6417154,-2.5256574,10.309999465942383,-1.2266887426376343,-0.5966888070106506
1691585380.52256,35524644,51.6417151,-2.5256582,10.300000190734863,-1.2333606481552124,-0.6033607125282288
1691585380.563158,35565242,51.6417149,-2.5256589,10.300000190734863,-1.2396003007888794,-0.6096003651618958
1691585380.602658,35604742,51.6417146,-2.5256597,10.289999961853027,-1.2445800304412842,-0.6145800352096558
1691585380.64257,35644654,51.6417144,-2.5256604,10.289999961853027,-1.2486028671264648,-0.6186029314994812
1691585380.683574,35685658,51.6417142,-2.525661,10.279999732971191,-1.2536765336990356,-0.6236765384674072
1691585380.723056,35725140,51.641714,-2.5256616,10.279999732971191,-1.2591667175292969,-0.6291667819023132
1691585380.763271,35765355,51.6417138,-2.5256622,10.269999504089355,-1.2649635076522827,-0.6349635720252991
1691585380.802705,35804789,51.6417135,-2.5256628,10.260000228881836,-1.2707692384719849,-0.6407692432403564
1691585380.842546,35844630,51.6417133,-2.5256634,10.260000228881836,-1.2768398523330688,-0.6468398571014404
1691585380.883175,35885259,51.6417131,-2.525664,10.25,-1.2817474603652954,-0.6517475247383118
1691585380.922511,35924595,51.6417129,-2.5256646,10.25,-1.2847906351089478,-0.6547906994819641
1691585380.963191,35965275,51.6417127,-2.5256653,10.25,-1.2851670980453491,-0.6551671028137207
1691585381.0026789,36004763,51.6417124,-2.5256659,10.25,-1.2843562364578247,-0.6543563008308411
1691585381.042559,36044643,51.6417122,-2.5256667,10.25,-1.2875570058822632,-0.6575570106506348
1691585381.083205,36085289,51.6417119,-2.5256674,10.239999771118164,-1.2935129404067993,-0.6635130047798157
1691585381.122554,36124638,51.6417116,-2.5256682,10.239999771118164,-1.2990049123764038,-0.6690049171447754
1691585381.163307,36165391,51.6417113,-2.525669,10.229999542236328,-1.3031710386276245,-0.6731711030006409
1691585381.203329,36205413,51.6417111,-2.5256697,10.229999542236328,-1.3053141832351685,-0.6753142476081848
1691585381.243278,36245362,51.6417108,-2.5256704,10.229999542236328,-1.3077449798583984,-0.6777450442314148
1691585381.28368,36285764,51.6417106,-2.525671,10.219999313354492,-1.3100863695144653,-0.6800864338874817
1691585381.322676,36324760,51.6417103,-2.5256717,10.219999313354492,-1.3120925426483154,-0.6820926070213318
1691585381.363312,36365396,51.6417101,-2.5256723,10.219999313354492,-1.3146134614944458,-0.6846134662628174
1691585381.402664,36404748,51.6417098,-2.5256729,10.219999313354492,-1.314509391784668,-0.6845093965530396
1691585381.442687,36444771,51.6417095,-2.5256735,10.219999313354492,-1.3147393465042114,-0.684739351272583
1691585381.483169,36485253,51.6417093,-2.5256741,10.219999313354492,-1.3182623386383057,-0.688262403011322
1691585381.522513,36524597,51.6417089,-2.5256748,10.210000038146973,-1.3250457048416138,-0.6950457692146301
1691585381.563154,36565238,51.6417086,-2.5256755,10.199999809265137,-1.332516074180603,-0.7025161385536194
1691585381.602743,36604827,51.6417083,-2.5256763,10.199999809265137,-1.339569330215454,-0.7095693945884705
1691585381.642538,36644622,51.641708,-2.525677,10.1899995803833,-1.3469115495681763,-0.7169115543365479
1691585381.683688,36685772,51.6417077,-2.5256778,10.179999351501465,-1.3535196781158447,-0.7235196828842163
1691585381.723063,36725147,51.6417074,-2.5256784,10.179999351501465,-1.359676718711853,-0.7296767830848694
1691585381.763548,36765632,51.6417071,-2.5256791,10.170000076293945,-1.3667789697647095,-0.7367790341377258
1691585381.802701,36804785,51.6417068,-2.5256797,10.15999984741211,-1.373612880706787,-0.7436129450798035
1691585381.8425329,36844617,51.6417065,-2.5256803,10.149999618530273,-1.3800138235092163,-0.7500138282775879
1691585381.883099,36885183,51.6417062,-2.5256808,10.149999618530273,-1.3851622343063354,-0.7551622986793518
1691585381.922539,36924623,51.6417059,-2.5256814,10.139999389648438,-1.3901381492614746,-0.7601381540298462
1691585381.963265,36965349,51.6417056,-2.5256819,10.139999389648438,-1.395437479019165,-0.7654375433921814
1691585382.002824,37004908,51.6417054,-2.5256825,10.130000114440918,-1.4006497859954834,-0.770649790763855
1691585382.042536,37044620,51.6417051,-2.5256831,10.130000114440918,-1.4077597856521606,-0.777759850025177
