time_index,position_y,attitude_yaw,attitude_pitch,wind_x,velocity_z,time_actual,attitude_roll,velocity_y,velocity_x,position_x,position_z,time_flight,wind_y,altitude_baro,current_1,rpm_1,quaternion_3,magnetometer_0,global_position_latitude,mode_2,servos_3,servos_2,magnetometer_2,magnetometer_1,tx_controls_1,tx_controls_7,battery_0,servos_6,tx_controls_3,tx_controls_5,axis_rate_roll,airspeed_0,quaternion_1,tx_controls_0,axis_rate_pitch,mode_1,acceleration_y,current_3,acceleration_z,global_position_longitude,current_0,rpm_0,current_2,tx_controls_4,battery_1,servos_0,altitude_gps,axis_rate_yaw,tx_controls_2,servos_5,quaternion_2,quaternion_0,airspeed_1,servos_4,acceleration_x,tx_controls_6,servos_7,servos_1,gps_sat_count_0,mode_0
0.0,50.51300811767578,0.8655087760639881,0.29670597283903605,0.0,-7.105844020843506,62.082834999999996,-0.054279739737023644,16.420827865600586,15.491189956665039,44.04511642456055,-10.208976745605469,62.082834999999996,0.0,,,,,,51.64113463369196,,,,,,,,,,,,,,,,,,,,,-2.5254820048860975,,,,,,,,,,,,,,,,,,,,
0.03907699999999892,51.16403579711914,0.8655087760639881,0.29496064358704166,0.0,-7.016115665435791,62.121911999999995,-0.045553093477052,16.514022827148438,15.506486892700195,44.657814025878906,-10.494738578796387,62.121911999999995,0.0,,,,,,51.641129129703835,,,,,,,,,,,,,,,,,,,,,-2.5254725811013135,,,,,,,,,,,,,,,,,,,,
0.07934999999999803,51.814064025878906,0.8660323748395863,0.29338984726024675,0.0,-6.904140472412109,62.162184999999994,-0.03804817769347639,16.557828903198242,15.58178424835205,45.269737243652344,-10.775453567504883,62.162184999999994,0.0,,,,,,51.641123632672155,,,,,,,,,,,,,,,,,,,,,-2.5254631717861296,,,,,,,,,,,,,,,,,,,,
0.11963700000000443,52.467891693115234,0.8653342431387886,0.2909463863074548,0.0,-6.722809791564941,62.202472,-0.041887902047863905,16.63796615600586,15.65129566192627,45.885250091552734,-11.050415992736816,62.202472,0.0,,,,,,51.64111810339409,,,,,,,,,,,,,,,,,,,,,-2.525453707475462,,,,,,,,,,,,,,,,,,,,
0.15926900000000188,53.12568664550781,0.8642870455875921,0.28989918875625814,0.0,-6.609917163848877,62.242104,-0.04153883619746504,16.69534683227539,15.705678939819336,46.50396728515625,-11.319414138793945,62.242104,0.0,,,,,,51.641112545330735,,,,,,,,,,,,,,,,,,,,,-2.525444185739648,,,,,,,,,,,,,,,,,,,,
0.19986899999999963,53.78659439086914,0.8635889138867942,0.2893755899806598,0.0,-6.595251560211182,62.282703999999995,-0.039968039870670144,16.738784790039062,15.74775218963623,47.12545394897461,-11.5850191116333,62.282703999999995,0.0,,,,,,51.641106962388655,,,,,,,,,,,,,,,,,,,,,-2.525434618947754,,,,,,,,,,,,,,,,,,,,
0.2392590000000041,54.46678924560547,0.8628907821859965,0.28955012290585924,0.0,-6.534748554229736,62.322094,-0.03298672286269283,16.792997360229492,15.782930374145508,47.765296936035156,-11.855340957641602,62.322094,0.0,,,,,,51.641101214547966,,,,,,,,,,,,,,,,,,,,,-2.5254247729730026,,,,,,,,,,,,,,,,,,,,
0.27949600000000174,55.12971115112305,0.8635889138867942,0.290248254606657,0.0,-6.466092109680176,62.362331,-0.02111848394913139,16.816791534423828,15.851419448852539,48.3874397277832,-12.113049507141113,62.362331,0.0,,,,,,51.641095625711756,,,,,,,,,,,,,,,,,,,,,-2.5254151770302795,,,,,,,,,,,,,,,,,,,,
0.3196489999999983,55.795501708984375,0.8644615785127915,0.291469985083053,0.0,-6.478675842285156,62.402483999999994,-0.010297442586766544,16.887571334838867,15.847183227539062,49.0118408203125,-12.36965274810791,62.402483999999994,0.0,,,,,,51.64109001658877,,,,,,,,,,,,,,,,,,,,,-2.5254055395654844,,,,,,,,,,,,,,,,,,,,
0.35916800000000393,56.4649772644043,0.8663814406899852,0.2930407814098479,0.0,-6.5409345626831055,62.442003,0.00471238898038469,16.947952270507812,15.862381935119629,49.637672424316406,-12.627126693725586,62.442003,0.0,,,,,,51.641084394615206,,,,,,,,,,,,,,,,,,,,,-2.525395848761615,,,,,,,,,,,,,,,,,,,,
0.3994509999999991,57.13846969604492,0.8677777040915806,0.29269171555944906,0.0,-6.571101665496826,62.482285999999995,0.01658062789394613,17.024921417236328,15.89623737335205,50.26483917236328,-12.887336730957031,62.482285999999995,0.0,,,,,,51.641078760647765,,,,,,,,,,,,,,,,,,,,,-2.525386099814619,,,,,,,,,,,,,,,,,,,,
0.4391220000000047,57.81549072265625,0.8669050394655835,0.29216811678385074,0.0,-6.702244281768799,62.521957,0.015184364492350668,17.105281829833984,15.91694164276123,50.894187927246094,-13.15087890625,62.521957,0.0,,,,,,51.64107310707892,,,,,,,,,,,,,,,,,,,,,-2.5253762997927143,,,,,,,,,,,,,,,,,,,,
0.48005799999999965,58.493247985839844,0.8649851772883898,0.2892010570554604,0.0,-6.752458095550537,62.562892999999995,0.012042771838760872,17.179611206054688,15.93421459197998,51.52033996582031,-13.414460182189941,62.562892999999995,0.0,,,,,,51.641067482226816,,,,,,,,,,,,,,,,,,,,,-2.5253664891154273,,,,,,,,,,,,,,,,,,,,
0.5200409999999991,59.17524719238281,0.862716249260797,0.289026524130261,0.0,-6.835937023162842,62.602875999999995,0.017453292519943295,17.26358985900879,15.963640213012695,52.14842224121094,-13.681975364685059,62.602875999999995,0.0,,,,,,51.641061840035015,,,,,,,,,,,,,,,,,,,,,-2.525356617037248,,,,,,,,,,,,,,,,,,,,
0.5598780000000048,59.86022186279297,0.8599237224576062,0.2853613327010729,0.0,-6.8722686767578125,62.642713,0.020943951023931952,17.289793014526367,16.030197143554688,52.77927780151367,-13.951574325561523,62.642713,0.0,,,,,,51.64105617293022,,,,,,,,,,,,,,,,,,,,,-2.525346701891098,,,,,,,,,,,,,,,,,,,,
0.5996980000000036,60.54726791381836,0.8566075968788169,0.28483773392547457,0.0,-6.909597396850586,62.682533,0.019547687622336492,17.320032119750977,16.1134033203125,53.41412353515625,-14.223956108093262,62.682533,0.0,,,,,,51.641050469980875,,,,,,,,,,,,,,,,,,,,,-2.525336756764148,,,,,,,,,,,,,,,,,,,,
0.6393040000000028,61.23604965209961,0.8546877347016232,0.2816961412718848,0.0,-6.926751613616943,62.722139,0.014835298641951801,17.346174240112305,16.175344467163086,54.052371978759766,-14.496646881103516,62.722139,0.0,,,,,,51.6410447364643,,,,,,,,,,,,,,,,,,,,,-2.5253267865156097,,,,,,,,,,,,,,,,,,,,
0.6794450000000012,61.92367935180664,0.8532914713000277,0.2811725424962865,0.0,-6.989285469055176,62.76228,0.0041887902047863905,17.377599716186523,16.208715438842773,54.68925476074219,-14.770368576049805,62.76228,0.0,,,,,,51.64103901521574,,,,,,,,,,,,,,,,,,,,,-2.5253168329455145,,,,,,,,,,,,,,,,,,,,
0.7196890000000025,62.6135139465332,0.8531169383748284,0.2794272132442922,0.0,-7.0909271240234375,62.802524,-0.007330382858376184,17.40772247314453,16.24216651916504,55.32797622680664,-15.047266006469727,62.802524,0.0,,,,,,51.6410332774499,,,,,,,,,,,,,,,,,,,,,-2.5253068474616334,,,,,,,,,,,,,,,,,,,,
0.7592580000000027,63.305171966552734,0.8503244115716373,0.27977627909469105,0.0,-7.216683387756348,62.842093,-0.018675022996339326,17.42732048034668,16.263423919677734,55.969139099121094,-15.330069541931152,62.842093,0.0,,,,,,51.641027517752406,,,,,,,,,,,,,,,,,,,,,-2.525296835586006,,,,,,,,,,,,,,,,,,,,
0.7993179999999995,63.998355865478516,0.848579082319643,0.27977627909469105,0.0,-7.327352523803711,62.882152999999995,-0.017453292519943295,17.449705123901367,16.304292678833008,56.612117767333984,-15.617101669311523,62.882152999999995,0.0,,,,,,51.64102174174325,,,,,,,,,,,,,,,,,,,,,-2.5252868016256302,,,,,,,,,,,,,,,,,,,,
0.8391009999999994,64.69306182861328,0.8473573518432469,0.2792526803190927,0.0,-7.344233989715576,62.921935999999995,-0.012740903539558606,17.463224411010742,16.348251342773438,57.25770950317383,-15.907774925231934,62.921935999999995,0.0,,,,,,51.641015942260374,,,,,,,,,,,,,,,,,,,,,-2.5252767456358907,,,,,,,,,,,,,,,,,,,,
0.879331999999998,65.38481140136719,0.8463101542920505,0.2789036144686939,0.0,-7.373168468475342,62.962166999999994,-0.013788101090755204,17.48491668701172,16.423412322998047,57.9028205871582,-16.196882247924805,62.962166999999994,0.0,,,,,,51.64101014709529,,,,,,,,,,,,,,,,,,,,,-2.5252667324433977,,,,,,,,,,,,,,,,,,,,
0.9196460000000002,66.07874298095703,0.8454374896660531,0.27785641691749724,0.0,-7.311863422393799,63.002480999999996,-0.016755160819145562,17.515165328979492,16.459491729736328,58.551353454589844,-16.486602783203125,63.002480999999996,0.0,,,,,,51.64100432119162,,,,,,,,,,,,,,,,,,,,,-2.52525668766882,,,,,,,,,,,,,,,,,,,,
0.9596549999999979,66.77499389648438,0.8456120225912527,0.27820548276789614,0.0,-7.306498050689697,63.042489999999994,-0.014486232791552934,17.563852310180664,16.514997482299805,59.20259094238281,-16.77467155456543,63.042489999999994,0.0,,,,,,51.640998470991796,,,,,,,,,,,,,,,,,,,,,-2.5252466093241663,,,,,,,,,,,,,,,,,,,,
0.9999820000000028,67.47419738769531,0.8471828189180476,0.2769837522915001,0.0,-7.256608963012695,63.082817,-0.013613568165555772,17.618545532226562,16.49555015563965,59.85540771484375,-17.062467575073242,63.082817,0.0,,,,,,51.64099260660493,,,,,,,,,,,,,,,,,,,,,-2.5252364882428906,,,,,,,,,,,,,,,,,,,,
1.0392530000000022,68.17681884765625,0.8484045493944435,0.278554548618295,0.0,-7.279933452606201,63.122088,-0.006981317007977318,17.706661224365234,16.484603881835938,60.50834655761719,-17.349565505981445,63.122088,0.0,,,,,,51.64098674112148,,,,,,,,,,,,,,,,,,,,,-2.525226317688013,,,,,,,,,,,,,,,,,,,,
1.0794899999999998,68.87944793701172,0.8491026810952413,0.2775073510670984,0.0,-7.259442329406738,63.162324999999996,-0.00034906585039886593,17.74787712097168,16.468862533569336,61.15842056274414,-17.637136459350586,63.162324999999996,0.0,,,,,,51.64098090137346,,,,,,,,,,,,,,,,,,,,,-2.525216147024763,,,,,,,,,,,,,,,,,,,,
1.119610999999999,69.58499145507812,0.8491026810952413,0.2790781473938933,0.0,-7.314470291137695,63.202445999999995,0.0054105206811824215,17.809022903442383,16.484310150146484,61.809383392333984,-17.925338745117188,63.202445999999995,0.0,,,,,,51.64097505364094,,,,,,,,,,,,,,,,,,,,,-2.5252059341769875,,,,,,,,,,,,,,,,,,,,
1.159162000000002,70.29344940185547,0.848579082319643,0.2776818839922978,0.0,-7.262508392333984,63.241997,0.012740903539558606,17.85738754272461,16.4754638671875,62.46128845214844,-18.214494705200195,63.241997,0.0,,,,,,51.640969197444186,,,,,,,,,,,,,,,,,,,,,-2.5251956791447197,,,,,,,,,,,,,,,,,,,,
1.199741000000003,71.0051498413086,0.8480554835440448,0.2789036144686939,0.0,-7.206486701965332,63.282576,0.02600540585471551,17.940935134887695,16.516908645629883,63.11479949951172,-18.501590728759766,63.282576,0.0,,,,,,51.640963326820504,,,,,,,,,,,,,,,,,,,,,-2.5251853771792834,,,,,,,,,,,,,,,,,,,,
1.2392210000000006,71.72020721435547,0.848579082319643,0.2764601535159018,0.0,-7.008895397186279,63.322055999999996,0.03804817769347639,18.00091552734375,16.572120666503906,63.77101516723633,-18.78370475769043,63.322055999999996,0.0,,,,,,51.64095743190067,,,,,,,,,,,,,,,,,,,,,-2.5251750266243627,,,,,,,,,,,,,,,,,,,,
1.2794269999999983,72.43757629394531,0.8492772140204407,0.2775073510670984,0.0,-6.878354072570801,63.362261999999994,0.04223696789826278,18.090456008911133,16.630245208740234,64.4256362915039,-19.057262420654297,63.362261999999994,0.0,,,,,,51.640951551304944,,,,,,,,,,,,,,,,,,,,,-2.525164642609101,,,,,,,,,,,,,,,,,,,,
1.3195219999999992,73.15855407714844,0.8492772140204407,0.2750638901143063,0.0,-6.7047648429870605,63.402356999999995,0.045553093477052,18.151294708251953,16.669368743896484,65.08301544189453,-19.32508659362793,63.402356999999995,0.0,,,,,,51.6409456459333,,,,,,,,,,,,,,,,,,,,,-2.525154206359963,,,,,,,,,,,,,,,,,,,,
1.3591170000000048,73.88286590576172,0.8494517469456402,0.2762856205907024,0.0,-6.637477397918701,63.441952,0.048869219055841226,18.223068237304688,16.72079086303711,65.74335479736328,-19.588653564453125,63.441952,0.0,,,,,,51.64093971396953,,,,,,,,,,,,,,,,,,,,,-2.5251437218527957,,,,,,,,,,,,,,,,,,,,
1.3994640000000018,74.60978698730469,0.849800812796039,0.2741912254883092,0.0,-6.56148099899292,63.482299,0.0486946861306418,18.262678146362305,16.75600242614746,66.40605163574219,-19.849401473999023,63.482299,0.0,,,,,,51.64093376082801,,,,,,,,,,,,,,,,,,,,,-2.525133199579109,,,,,,,,,,,,,,,,,,,,
1.4391680000000022,75.33911895751953,0.850149878646438,0.2759365547403035,0.0,-6.581534385681152,63.522003,0.04852015320544236,18.317955017089844,16.782869338989258,67.07100677490234,-20.109783172607422,63.522003,0.0,,,,,,51.64092778739971,,,,,,,,,,,,,,,,,,,,,-2.5251226424102966,,,,,,,,,,,,,,,,,,,,
1.4800329999999988,76.06849670410156,0.8503244115716373,0.27436575841350863,0.0,-6.562378883361816,63.562867999999995,0.05131268000863329,18.346590042114258,16.819400787353516,67.73407745361328,-20.365163803100586,63.562867999999995,0.0,,,,,,51.640921830899906,,,,,,,,,,,,,,,,,,,,,-2.525112084581227,,,,,,,,,,,,,,,,,,,,
1.5200500000000048,76.79986572265625,0.850149878646438,0.27576202181510406,0.0,-6.599941253662109,63.602885,0.05445427266222309,18.37601661682129,16.85055923461914,68.39974975585938,-20.622285842895508,63.602885,0.0,,,,,,51.640915851029185,,,,,,,,,,,,,,,,,,,,,-2.5251014979312196,,,,,,,,,,,,,,,,,,,,
1.559894,77.53243255615234,0.8503244115716373,0.2741912254883092,0.0,-6.618103504180908,63.642728999999996,0.05759586531581287,18.39665412902832,16.890716552734375,69.06745910644531,-20.88058090209961,63.642728999999996,0.0,,,,,,51.64090985285924,,,,,,,,,,,,,,,,,,,,,-2.525090893945714,,,,,,,,,,,,,,,,,,,,
1.5994230000000016,78.26657104492188,0.8499753457212386,0.2750638901143063,0.0,-6.636152744293213,63.682258,0.058643062867009474,18.41619300842285,16.94277000427246,69.73783111572266,-21.14116668701172,63.682258,0.0,,,,,,51.640903830770085,,,,,,,,,,,,,,,,,,,,,-2.5250802672134154,,,,,,,,,,,,,,,,,,,,
1.6391139999999993,79.00171661376953,0.8496262798708396,0.27296949501191314,0.0,-6.5912017822265625,63.721948999999995,0.05707226654021458,18.44289779663086,17.008258819580078,70.41104125976562,-21.400836944580078,63.721948999999995,0.0,,,,,,51.64089778318538,,,,,,,,,,,,,,,,,,,,,-2.5250696259067897,,,,,,,,,,,,,,,,,,,,
1.6794520000000048,79.7365493774414,0.8492772140204407,0.27296949501191314,0.0,-6.5517048835754395,63.762287,0.05497787143782138,18.466440200805664,17.063343048095703,71.08399200439453,-21.65711212158203,63.762287,0.0,,,,,,51.64089173793092,,,,,,,,,,,,,,,,,,,,,-2.525058989130893,,,,,,,,,,,,,,,,,,,,
1.719649000000004,80.47246551513672,0.8492772140204407,0.27192229746071656,0.0,-6.553544998168945,63.802484,0.05113814708343386,18.490222930908203,17.112478256225586,71.7598648071289,-21.91261100769043,63.802484,0.0,,,,,,51.64088566642701,,,,,,,,,,,,,,,,,,,,,-2.5250483366763397,,,,,,,,,,,,,,,,,,,,
1.7591060000000027,81.20991516113281,0.8489281481700419,0.2722713633111154,0.0,-6.576287746429443,63.841941,0.04852015320544236,18.500560760498047,17.145692825317383,72.43826293945312,-22.170055389404297,63.841941,0.0,,,,,,51.64087957223755,,,,,,,,,,,,,,,,,,,,,-2.5250376620272323,,,,,,,,,,,,,,,,,,,,
1.7994680000000045,81.9480972290039,0.8491026810952413,0.2724458962363148,0.0,-6.609317302703857,63.882303,0.04590215932745086,18.517988204956055,17.201135635375977,73.1191177368164,-22.42848777770996,63.882303,0.0,,,,,,51.64087345597936,,,,,,,,,,,,,,,,,,,,,-2.525026976779546,,,,,,,,,,,,,,,,,,,,
1.839492,82.68755340576172,0.848579082319643,0.272096830385916,0.0,-6.592941761016846,63.922326999999996,0.041015237421866746,18.529476165771484,17.24349021911621,73.802490234375,-22.688552856445312,63.922326999999996,0.0,,,,,,51.64086731710415,,,,,,,,,,,,,,,,,,,,,-2.525016273092234,,,,,,,,,,,,,,,,,,,,
1.8794740000000019,83.42460632324219,0.848579082319643,0.2724458962363148,0.0,-6.598917484283447,63.962309,0.03508111796508602,18.548582077026367,17.31888771057129,74.48664855957031,-22.944660186767578,63.962309,0.0,,,,,,51.640861171169696,,,,,,,,,,,,,,,,,,,,,-2.525005604195896,,,,,,,,,,,,,,,,,,,,
1.9196360000000041,84.16276550292969,0.8477064176936459,0.27174776453551713,0.0,-6.571127891540527,64.002471,0.029670597283903602,18.542566299438477,17.367307662963867,75.1740493774414,-23.2016658782959,64.002471,0.0,,,,,,51.640854996107265,,,,,,,,,,,,,,,,,,,,,-2.524994919289763,,,,,,,,,,,,,,,,,,,,
1.9595250000000064,84.90142059326172,0.8475318847684464,0.27314402793711257,0.0,-6.633735656738281,64.04236,0.02495820830351891,18.552188873291016,17.426258087158203,75.86434173583984,-23.4596004486084,64.04236,0.0,,,,,,51.64084879506954,,,,,,,,,,,,,,,,,,,,,-2.5249842272087926,,,,,,,,,,,,,,,,,,,,
1.9999359999999982,85.64057159423828,0.8471828189180476,0.2724458962363148,0.0,-6.640035629272461,64.082771,0.02076941809873252,18.539234161376953,17.45976448059082,76.55716705322266,-23.71992301940918,64.082771,0.0,,,,,,51.64084257127771,,,,,,,,,,,,,,,,,,,,,-2.5249735279529184,,,,,,,,,,,,,,,,,,,,
2.0394329999999954,86.39835357666016,0.8471828189180476,0.2736676267127109,0.0,-6.714691638946533,64.12226799999999,0.019024088846738195,18.543264389038086,17.528697967529297,77.27007293701172,-23.98917007446289,64.12226799999999,0.0,,,,,,51.640836167098044,,,,,,,,,,,,,,,,,,,,,-2.524962559016148,,,,,,,,,,,,,,,,,,,,
2.0794189999999944,87.13560485839844,0.8470082859928482,0.273318560862312,0.0,-6.673640727996826,64.16225399999999,0.019024088846738195,18.53622055053711,17.572980880737305,77.96587371826172,-24.249921798706055,64.16225399999999,0.0,,,,,,51.64082991657702,,,,,,,,,,,,,,,,,,,,,-2.524951887265949,,,,,,,,,,,,,,,,,,,,
2.119523000000008,87.87334442138672,0.8475318847684464,0.2741912254883092,0.0,-6.71034049987793,64.202358,0.020245819323134222,18.54967498779297,17.632953643798828,78.66477966308594,-24.510761260986328,64.202358,0.0,,,,,,51.64082363816168,,,,,,,,,,,,,,,,,,,,,-2.5249412084514646,,,,,,,,,,,,,,,,,,,,
2.159281,88.61182403564453,0.8482300164692442,0.27349309378751147,0.0,-6.711441993713379,64.242116,0.02303834612632515,18.537473678588867,17.654855728149414,79.3658676147461,-24.773418426513672,64.242116,0.0,,,,,,51.64081734014491,,,,,,,,,,,,,,,,,,,,,-2.524930518928042,,,,,,,,,,,,,,,,,,,,
2.1998730000000037,89.35074615478516,0.8492772140204407,0.27541295596470516,0.0,-6.812260627746582,64.282708,0.024783675378319478,18.55125617980957,17.697628021240234,80.06886291503906,-25.038618087768555,64.282708,0.0,,,,,,51.64081102499405,,,,,,,,,,,,,,,,,,,,,-2.5249198230026955,,,,,,,,,,,,,,,,,,,,
2.2394669999999977,90.09014129638672,0.849800812796039,0.27436575841350863,0.0,-6.8490471839904785,64.322302,0.025656340004316644,18.544593811035156,17.70591926574707,80.77339172363281,-25.30729866027832,64.322302,0.0,,,,,,51.64080469606737,,,,,,,,,,,,,,,,,,,,,-2.5249091202335934,,,,,,,,,,,,,,,,,,,,
2.279479000000002,90.82673645019531,0.8506734774220363,0.2762856205907024,0.0,-6.930299282073975,64.362314,0.027925268031909273,18.56700897216797,17.730222702026367,81.4763412475586,-25.575862884521484,64.362314,0.0,,,,,,51.64079838132772,,,,,,,,,,,,,,,,,,,,,-2.524898457997661,,,,,,,,,,,,,,,,,,,,
2.319628999999999,91.56439971923828,0.8513716091228339,0.27454029133870805,0.0,-6.93179988861084,64.402464,0.028797932657906436,18.559961318969727,17.744792938232422,82.18061065673828,-25.84634780883789,64.402464,0.0,,,,,,51.64079205473128,,,,,,,,,,,,,,,,,,,,,-2.524887780303785,,,,,,,,,,,,,,,,,,,,
2.3591630000000023,92.30337524414062,0.8524188066740306,0.2762856205907024,0.0,-6.9996442794799805,64.441998,0.030368728984701335,18.602005004882812,17.73402976989746,82.88579559326172,-26.119657516479492,64.441998,0.0,,,,,,51.64078571991046,,,,,,,,,,,,,,,,,,,,,-2.5248770836178713,,,,,,,,,,,,,,,,,,,,
2.399442999999998,93.04418182373047,0.8534660042252271,0.27454029133870805,0.0,-6.988370895385742,64.482278,0.03438298626428829,18.62952995300293,17.725082397460938,83.59095764160156,-26.394121170043945,64.482278,0.0,,,,,,51.640779385295254,,,,,,,,,,,,,,,,,,,,,-2.524866360429931,,,,,,,,,,,,,,,,,,,,
2.4392209999999963,93.78699493408203,0.8546877347016232,0.27680921936630065,0.0,-7.060682773590088,64.52205599999999,0.041713369122664476,18.67333221435547,17.701223373413086,84.29615783691406,-26.670963287353516,64.52205599999999,0.0,,,,,,51.640773050337366,,,,,,,,,,,,,,,,,,,,,-2.5248556081999283,,,,,,,,,,,,,,,,,,,,
2.4800109999999975,94.52855682373047,0.8566075968788169,0.2762856205907024,0.0,-7.098297119140625,64.562846,0.05183627878423159,18.7089900970459,17.685588836669922,84.99746704101562,-26.94712257385254,64.562846,0.0,,,,,,51.64076675033305,,,,,,,,,,,,,,,,,,,,,-2.5248448740836262,,,,,,,,,,,,,,,,,,,,
2.5200400000000016,95.2727279663086,0.8574802615048142,0.2776818839922978,0.0,-7.1453399658203125,64.602875,0.05707226654021458,18.753705978393555,17.669662475585938,85.69918823242188,-27.226518630981445,64.602875,0.0,,,,,,51.64076044662777,,,,,,,,,,,,,,,,,,,,,-2.524834102200797,,,,,,,,,,,,,,,,,,,,
2.5598400000000012,96.01934814453125,0.857829327355213,0.27680921936630065,0.0,-7.1460161209106445,64.642675,0.06283185307179587,18.80609893798828,17.659343719482422,86.40058135986328,-27.506807327270508,64.642675,0.0,,,,,,51.64075414586955,,,,,,,,,,,,,,,,,,,,,-2.524823294870442,,,,,,,,,,,,,,,,,,,,
2.599663999999997,96.76889038085938,0.8580038602804123,0.2775073510670984,0.0,-7.1636152267456055,64.68249899999999,0.06789330790257943,18.852161407470703,17.647981643676758,87.10224914550781,-27.78879737854004,64.68249899999999,0.0,,,,,,51.640747842644025,,,,,,,,,,,,,,,,,,,,,-2.5248124452456184,,,,,,,,,,,,,,,,,,,,
2.6392980000000037,97.52030944824219,0.8583529261308113,0.2769837522915001,0.0,-7.191595554351807,64.722133,0.06981317007977318,18.897499084472656,17.63505744934082,87.80396270751953,-28.071414947509766,64.722133,0.0,,,,,,51.64074153900728,,,,,,,,,,,,,,,,,,,,,-2.524801568456212,,,,,,,,,,,,,,,,,,,,
2.6794650000000004,98.27255249023438,0.8583529261308113,0.277332818141899,0.0,-7.199014186859131,64.7623,0.0715584993317675,18.931596755981445,17.62196159362793,88.50157928466797,-28.353130340576172,64.7623,0.0,,,,,,51.64073527217459,,,,,,,,,,,,,,,,,,,,,-2.5247906797414323,,,,,,,,,,,,,,,,,,,,
2.719681999999999,99.02704620361328,0.8583529261308113,0.2776818839922978,0.0,-7.212970733642578,64.802517,0.0778416846389471,18.985145568847656,17.624731063842773,89.19963836669922,-28.6352596282959,64.802517,0.0,,,,,,51.640729001366786,,,,,,,,,,,,,,,,,,,,,-2.5247797584507503,,,,,,,,,,,,,,,,,,,,
2.7590800000000044,99.78398895263672,0.8587019919812102,0.27785641691749724,0.0,-7.189640998840332,64.841915,0.08587019919812101,19.017765045166016,17.616823196411133,89.89850616455078,-28.918415069580078,64.841915,0.0,,,,,,51.64072272329412,,,,,,,,,,,,,,,,,,,,,-2.5247688017129146,,,,,,,,,,,,,,,,,,,,
2.7994310000000056,100.54251098632812,0.8597491895324068,0.27838001569309556,0.0,-7.21948766708374,64.882266,0.091106186954104,19.05658531188965,17.632827758789062,90.59828186035156,-29.20172691345215,64.882266,0.0,,,,,,51.64071643706563,,,,,,,,,,,,,,,,,,,,,-2.5247578221178357,,,,,,,,,,,,,,,,,,,,
2.839266000000002,101.30294799804688,0.8604473212332044,0.27785641691749724,0.0,-7.18332052230835,64.922101,0.09337511498169662,19.081972122192383,17.621501922607422,91.2987289428711,-29.48613739013672,64.922101,0.0,,,,,,51.64071014480592,,,,,,,,,,,,,,,,,,,,,-2.524746814806216,,,,,,,,,,,,,,,,,,,,
2.879455,102.06392669677734,0.8614945187844011,0.2789036144686939,0.0,-7.180502891540527,64.96229,0.09826203688728075,19.15658950805664,17.620349884033203,91.9961929321289,-29.7669620513916,64.96229,0.0,,,,,,51.64070387934396,,,,,,,,,,,,,,,,,,,,,-2.5247357996557263,,,,,,,,,,,,,,,,,,,,
2.9195259999999976,102.82788848876953,0.8628907821859965,0.2780309498426967,0.0,-7.118683815002441,65.002361,0.10437068926926091,19.195409774780273,17.600675582885742,92.69398498535156,-30.047510147094727,65.002361,0.0,,,,,,51.64069761093493,,,,,,,,,,,,,,,,,,,,,-2.524724741327377,,,,,,,,,,,,,,,,,,,,
2.9596600000000066,103.594482421875,0.8646361114379908,0.27960174616949157,0.0,-7.125813961029053,65.042495,0.10890854532444617,19.271276473999023,17.602874755859375,93.39234161376953,-30.327449798583984,65.042495,0.0,,,,,,51.64069133745421,,,,,,,,,,,,,,,,,,,,,-2.5247136449013756,,,,,,,,,,,,,,,,,,,,
3.0000180000000043,104.36393737792969,0.8656833089891874,0.27820548276789614,0.0,-7.0647711753845215,65.082853,0.11065387457644049,19.316225051879883,17.57735824584961,94.09087371826172,-30.60698890686035,65.082853,0.0,,,,,,51.64068506239715,,,,,,,,,,,,,,,,,,,,,-2.524702507064506,,,,,,,,,,,,,,,,,,,,
3.039279999999998,105.1362533569336,0.8669050394655835,0.27977627909469105,0.0,-7.076618671417236,65.122115,0.11065387457644049,19.392330169677734,17.571060180664062,94.78938293457031,-30.886096954345703,65.122115,0.0,,,,,,51.640678787545696,,,,,,,,,,,,,,,,,,,,,-2.5246913278167273,,,,,,,,,,,,,,,,,,,,
3.0794480000000064,105.91040802001953,0.8677777040915806,0.27785641691749724,0.0,-7.022565841674805,65.162283,0.10978120995044333,19.443927764892578,17.547761917114258,95.48419952392578,-31.161699295043945,65.162283,0.0,,,,,,51.64067254586587,,,,,,,,,,,,,,,,,,,,,-2.5246801219555364,,,,,,,,,,,,,,,,,,,,
3.1195140000000023,106.68771362304688,0.8688249016427773,0.2794272132442922,0.0,-7.0143256187438965,65.202349,0.10925761117484503,19.5272159576416,17.532207489013672,96.17906188964844,-31.43754768371582,65.202349,0.0,,,,,,51.64066630377482,,,,,,,,,,,,,,,,,,,,,-2.5246688704868547,,,,,,,,,,,,,,,,,,,,
3.1591160000000045,107.46809387207031,0.8691739674931761,0.27715828521669955,0.0,-6.899134635925293,65.241951,0.10821041362364843,19.58147430419922,17.54572296142578,96.8745346069336,-31.71078109741211,65.241951,0.0,,,,,,51.640660056200865,,,,,,,,,,,,,,,,,,,,,-2.5246575745152477,,,,,,,,,,,,,,,,,,,,
3.199737000000006,108.25103759765625,0.8681267699419796,0.278554548618295,0.0,-6.8163909912109375,65.282572,0.10402162341886204,19.62983512878418,17.598886489868164,97.57205963134766,-31.98155975341797,65.282572,0.0,,,,,,51.64065379019061,,,,,,,,,,,,,,,,,,,,,-2.52464624144048,,,,,,,,,,,,,,,,,,,,
3.2392560000000046,109.0352554321289,0.8663814406899852,0.2764601535159018,0.0,-6.693634510040283,65.322091,0.09930923443847736,19.644426345825195,17.673242568969727,98.27274322509766,-32.24772644042969,65.322091,0.0,,,,,,51.64064749580628,,,,,,,,,,,,,,,,,,,,,-2.5246348899268165,,,,,,,,,,,,,,,,,,,,
3.2794600000000074,109.81985473632812,0.8653342431387886,0.2775073510670984,0.0,-6.6957902908325195,65.362295,0.09494591130849153,19.65589714050293,17.71840476989746,98.97313690185547,-32.50840377807617,65.362295,0.0,,,,,,51.64064120402633,,,,,,,,,,,,,,,,,,,,,-2.524623532894353,,,,,,,,,,,,,,,,,,,,
3.319482999999998,110.60440063476562,0.8651597102135892,0.27663468644110123,0.0,-6.745580673217773,65.402318,0.08970992355250854,19.6458797454834,17.74310874938965,99.67549896240234,-32.77070617675781,65.402318,0.0,,,,,,51.64063489456399,,,,,,,,,,,,,,,,,,,,,-2.524612176638726,,,,,,,,,,,,,,,,,,,,
3.359082000000008,111.38929748535156,0.8649851772883898,0.2769837522915001,0.0,-6.803035259246826,65.441917,0.08866272600131195,19.6358699798584,17.77164077758789,100.37977600097656,-33.03650665283203,65.441917,0.0,,,,,,51.64062856789901,,,,,,,,,,,,,,,,,,,,,-2.5246008153067607,,,,,,,,,,,,,,,,,,,,
3.399501000000008,112.173828125,0.8660323748395863,0.2762856205907024,0.0,-6.894927978515625,65.482336,0.08639379797371932,19.64219856262207,17.7700252532959,101.0853500366211,-33.305198669433594,65.482336,0.0,,,,,,51.64062222958284,,,,,,,,,,,,,,,,,,,,,-2.5245894592793663,,,,,,,,,,,,,,,,,,,,
3.4392520000000033,112.95917510986328,0.8672541053159823,0.2759365547403035,0.0,-6.968636512756348,65.522087,0.08168140899333462,19.646310806274414,17.762910842895508,101.7913589477539,-33.57859802246094,65.522087,0.0,,,,,,51.64061588736009,,,,,,,,,,,,,,,,,,,,,-2.5245780914385136,,,,,,,,,,,,,,,,,,,,
3.48001,113.74335479736328,0.8677777040915806,0.27541295596470516,0.0,-7.068049430847168,65.562845,0.0778416846389471,19.66421127319336,17.745073318481445,102.49559783935547,-33.85057830810547,65.562845,0.0,,,,,,51.64060956103779,,,,,,,,,,,,,,,,,,,,,-2.5245667404971432,,,,,,,,,,,,,,,,,,,,
3.5200770000000077,114.5289306640625,0.8691739674931761,0.27523842303950574,0.0,-7.127140522003174,65.602912,0.08185594191853406,19.68114471435547,17.70291519165039,103.19914245605469,-34.12770080566406,65.602912,0.0,,,,,,51.6406032409523,,,,,,,,,,,,,,,,,,,,,-2.5245553693487213,,,,,,,,,,,,,,,,,,,,
3.5596750000000057,115.31513214111328,0.8702211650443727,0.27523842303950574,0.0,-7.226577281951904,65.64251,0.08552113334772216,19.692529678344727,17.699668884277344,103.90251159667969,-34.407981872558594,65.64251,0.0,,,,,,51.64059692244316,,,,,,,,,,,,,,,,,,,,,-2.5245439891475687,,,,,,,,,,,,,,,,,,,,
3.599606999999999,116.1017074584961,0.8693485004183756,0.27436575841350863,0.0,-7.241247177124023,65.682442,0.08621926504851989,19.67670440673828,17.705158233642578,104.60638427734375,-34.69225311279297,65.682442,0.0,,,,,,51.64059059941061,,,,,,,,,,,,,,,,,,,,,-2.5245326035383386,,,,,,,,,,,,,,,,,,,,
3.6394670000000033,116.88810729980469,0.8691739674931761,0.27401669256310973,0.0,-7.24746561050415,65.722302,0.0825540736193318,19.690532684326172,17.746057510375977,105.31193542480469,-34.97683334350586,65.722302,0.0,,,,,,51.64058426130004,,,,,,,,,,,,,,,,,,,,,-2.524521220472899,,,,,,,,,,,,,,,,,,,,
3.679426999999997,117.67346954345703,0.8681267699419796,0.2727949620867137,0.0,-7.192194938659668,65.76226199999999,0.07592182246175333,19.673805236816406,17.773420333862305,106.01619720458984,-35.25955581665039,65.76226199999999,0.0,,,,,,51.64057793477213,,,,,,,,,,,,,,,,,,,,,-2.5245098524296448,,,,,,,,,,,,,,,,,,,,
3.7196360000000013,118.4578628540039,0.866730506540384,0.2724458962363148,0.0,-7.200378894805908,65.802471,0.05707226654021458,19.63702392578125,17.863262176513672,106.72374725341797,-35.54151153564453,65.802471,0.0,,,,,,51.64057157870503,,,,,,,,,,,,,,,,,,,,,-2.5244984984161825,,,,,,,,,,,,,,,,,,,,
3.7590920000000025,119.24006652832031,0.8648106443631902,0.2707005669843205,0.0,-7.172389984130859,65.841927,0.009773843811168246,19.552703857421875,17.958221435546875,107.43585968017578,-35.82411193847656,65.841927,0.0,,,,,,51.64056518165315,,,,,,,,,,,,,,,,,,,,,-2.524487176102887,,,,,,,,,,,,,,,,,,,,
3.7994190000000074,120.0196304321289,0.8628907821859965,0.2696533694331239,0.0,-7.242192268371582,65.882254,-0.06056292504420324,19.50289535522461,18.048778533935547,108.15227508544922,-36.1079216003418,65.882254,0.0,,,,,,51.640558745946734,,,,,,,,,,,,,,,,,,,,,-2.52447589200547,,,,,,,,,,,,,,,,,,,,
3.839225000000006,120.81721496582031,0.8609709200088027,0.2659881780039358,0.0,-7.1984944343566895,65.92206,-0.1408480706359424,19.45863151550293,18.110261917114258,108.89009094238281,-36.400272369384766,65.92206,0.0,,,,,,51.640552117995675,,,,,,,,,,,,,,,,,,,,,-2.5244643470665094,,,,,,,,,,,,,,,,,,,,
3.8794499999999985,121.59197235107422,0.860272788308005,0.26249751949994715,0.0,-7.207468032836914,65.962285,-0.21572269554649912,19.452213287353516,18.174394607543945,109.6122055053711,-36.68239212036133,65.962285,0.0,,,,,,51.64054563109256,,,,,,,,,,,,,,,,,,,,,-2.524453132552861,,,,,,,,,,,,,,,,,,,,
3.919466000000007,122.3674545288086,0.860621854158404,0.2583087292951608,0.0,-7.121150493621826,66.002301,-0.2790781473938933,19.460628509521484,18.20214080810547,110.3365478515625,-36.964317321777344,66.002301,0.0,,,,,,51.640539124176804,,,,,,,,,,,,,,,,,,,,,-2.5244419075516924,,,,,,,,,,,,,,,,,,,,
3.959657,123.14397430419922,0.8611454529340022,0.25621433419276757,0.0,-7.065586090087891,66.042492,-0.34121186876489146,19.49564552307129,18.25502586364746,111.06310272216797,-37.24346160888672,66.042492,0.0,,,,,,51.64053259738549,,,,,,,,,,,,,,,,,,,,,-2.524430667535103,,,,,,,,,,,,,,,,,,,,
3.999996000000003,123.92289733886719,0.8621926504851988,0.2530727415391778,0.0,-6.921352863311768,66.082831,-0.39584067435231396,19.548118591308594,18.25710105895996,111.79097747802734,-37.51937484741211,66.082831,0.0,,,,,,51.64052605873738,,,,,,,,,,,,,,,,,,,,,-2.5244193927345875,,,,,,,,,,,,,,,,,,,,
4.039464000000002,124.70328521728516,0.8614945187844011,0.2525491427635795,0.0,-6.9206438064575195,66.122299,-0.4441862946325569,19.557754516601562,18.320165634155273,112.52050018310547,-37.792640686035156,66.122299,0.0,,,,,,51.6405195052854,,,,,,,,,,,,,,,,,,,,,-2.5244080967340268,,,,,,,,,,,,,,,,,,,,
4.079472000000003,125.47870635986328,0.860621854158404,0.2501056818107874,0.0,-6.900936126708984,66.162307,-0.48939032225921,19.505279541015625,18.394609451293945,113.2546157836914,-38.06443405151367,66.162307,0.0,,,,,,51.6405129105745,,,,,,,,,,,,,,,,,,,,,-2.5243968726327997,,,,,,,,,,,,,,,,,,,,
4.119621000000002,126.25206756591797,0.8595746566072073,0.25080381351158515,0.0,-7.030975341796875,66.202456,-0.5318018230826722,19.423656463623047,18.50774574279785,113.99282836914062,-38.33926010131836,66.202456,0.0,,,,,,51.640506279059544,,,,,,,,,,,,,,,,,,,,,-2.524385678354276,,,,,,,,,,,,,,,,,,,,
4.159117999999999,127.02249145507812,0.8597491895324068,0.24923301718479024,0.0,-7.088418006896973,66.241953,-0.5656612105713621,19.321319580078125,18.600048065185547,114.73491668701172,-38.61825942993164,66.241953,0.0,,,,,,51.64049961272809,,,,,,,,,,,,,,,,,,,,,-2.524374526598628,,,,,,,,,,,,,,,,,,,,
4.199853999999995,127.78892517089844,0.8587019919812102,0.24993114888558798,0.0,-7.214992046356201,66.28268899999999,-0.5993460651348528,19.213228225708008,18.75060272216797,115.48238372802734,-38.90184020996094,66.28268899999999,0.0,,,,,,51.64049289807847,,,,,,,,,,,,,,,,,,,,,-2.5243634326066986,,,,,,,,,,,,,,,,,,,,
4.239111999999999,128.55227661132812,0.860272788308005,0.24783675378319478,0.0,-7.220431804656982,66.321947,-0.6375687757535285,19.139892578125,18.844419479370117,116.23462677001953,-39.18793487548828,66.321947,0.0,,,,,,51.64048614052505,,,,,,,,,,,,,,,,,,,,,-2.524352383236292,,,,,,,,,,,,,,,,,,,,
4.279434000000002,129.31085205078125,0.8594001236820079,0.2483603525587931,0.0,-7.2780609130859375,66.362269,-0.6777113485493982,19.076824188232422,18.96632194519043,116.99342346191406,-39.474605560302734,66.362269,0.0,,,,,,51.64047932409885,,,,,,,,,,,,,,,,,,,,,-2.524341403005051,,,,,,,,,,,,,,,,,,,,
4.319477999999997,130.0680694580078,0.8609709200088027,0.24678955623199822,0.0,-7.254963397979736,66.40231299999999,-0.7190756518216638,19.042402267456055,19.024425506591797,117.75541687011719,-39.761878967285156,66.40231299999999,0.0,,,,,,51.640472478955886,,,,,,,,,,,,,,,,,,,,,-2.5243304424360518,,,,,,,,,,,,,,,,,,,,
4.359276999999999,130.8265380859375,0.8604473212332044,0.24678955623199822,0.0,-7.152065277099609,66.442112,-0.7623598172711231,19.119003295898438,19.031002044677734,118.51924133300781,-40.047813415527344,66.442112,0.0,,,,,,51.640465617364185,,,,,,,,,,,,,,,,,,,,,-2.5243194637594177,,,,,,,,,,,,,,,,,,,,
4.399453000000001,131.58912658691406,0.8611454529340022,0.244695161129605,0.0,-7.0271501541137695,66.482288,-0.7974409352362092,19.197067260742188,18.98058319091797,119.2811050415039,-40.328548431396484,66.482288,0.0,,,,,,51.64045877338635,,,,,,,,,,,,,,,,,,,,,-2.524308425449517,,,,,,,,,,,,,,,,,,,,
4.439228000000007,132.35385131835938,0.857829327355213,0.24609142453120045,0.0,-6.961111545562744,66.522063,-0.8234463410909246,19.217845916748047,19.00850486755371,120.0430908203125,-40.606773376464844,66.522063,0.0,,,,,,51.640451928311926,,,,,,,,,,,,,,,,,,,,,-2.5242973562207065,,,,,,,,,,,,,,,,,,,,
4.480032000000001,133.11585998535156,0.8562585310284181,0.24591689160600103,0.0,-6.9338860511779785,66.562867,-0.8510225432724351,19.165348052978516,19.104795455932617,120.80904388427734,-40.88158416748047,66.562867,0.0,,,,,,51.64044504759857,,,,,,,,,,,,,,,,,,,,,-2.5242863263122266,,,,,,,,,,,,,,,,,,,,
4.520022000000004,133.87442016601562,0.8524188066740306,0.24731315500759649,0.0,-6.996099472045898,66.602857,-0.8836602002847291,19.036340713500977,19.240989685058594,121.58010864257812,-41.15876007080078,66.602857,0.0,,,,,,51.64043812096581,,,,,,,,,,,,,,,,,,,,,-2.5242753463264482,,,,,,,,,,,,,,,,,,,,
4.559689999999996,134.62911987304688,0.8504989444968367,0.24678955623199822,0.0,-7.045046806335449,66.64252499999999,-0.9189158511750145,18.929290771484375,19.36469268798828,122.35541534423828,-41.43757629394531,66.64252499999999,0.0,,,,,,51.64043115622681,,,,,,,,,,,,,,,,,,,,,-2.5242644222266275,,,,,,,,,,,,,,,,,,,,
4.599623000000001,135.38064575195312,0.8473573518432469,0.24731315500759649,0.0,-7.086527347564697,66.682458,-0.9531243045141033,18.85870361328125,19.415103912353516,123.13456726074219,-41.71930694580078,66.682458,0.0,,,,,,51.64042415694545,,,,,,,,,,,,,,,,,,,,,-2.524253544073311,,,,,,,,,,,,,,,,,,,,
4.639232999999997,136.1302032470703,0.8447393579652555,0.24731315500759649,0.0,-7.135138034820557,66.722068,-0.9820967700972093,18.79988670349121,19.480144500732422,123.91512298583984,-42.00209426879883,66.722068,0.0,,,,,,51.6404171450534,,,,,,,,,,,,,,,,,,,,,-2.5242426944165586,,,,,,,,,,,,,,,,,,,,
4.679288000000007,136.879638671875,0.8405505677604691,0.24661502330679877,0.0,-7.136387348175049,66.762123,-1.0088003076527223,18.755931854248047,19.50114631652832,124.69599914550781,-42.284942626953125,66.762123,0.0,,,,,,51.64041013028281,,,,,,,,,,,,,,,,,,,,,-2.5242318465302733,,,,,,,,,,,,,,,,,,,,
4.719480999999995,137.6267547607422,0.8347909812288878,0.24609142453120045,0.0,-7.196531295776367,66.80231599999999,-1.0321877196294464,18.680702209472656,19.59836196899414,125.47893524169922,-42.569034576416016,66.80231599999999,0.0,,,,,,51.64040309700739,,,,,,,,,,,,,,,,,,,,,-2.5242210322208907,,,,,,,,,,,,,,,,,,,,
4.759077999999995,138.371826171875,0.8299040593233037,0.24452062820440557,0.0,-7.189115047454834,66.84191299999999,-1.0547024669801734,18.6456241607666,19.604904174804688,126.2644271850586,-42.854923248291016,66.84191299999999,0.0,,,,,,51.64039604077227,,,,,,,,,,,,,,,,,,,,,-2.5242102475128867,,,,,,,,,,,,,,,,,,,,
4.799495999999998,139.11683654785156,0.8234463410909246,0.24382249650360785,0.0,-7.195626735687256,66.882331,-1.0737265558269116,18.655839920043945,19.623851776123047,127.04987335205078,-43.14048767089844,66.882331,0.0,,,,,,51.64038898494838,,,,,,,,,,,,,,,,,,,,,-2.5241994636917138,,,,,,,,,,,,,,,,,,,,
4.839295,139.8626251220703,0.8182103533349417,0.24172810140121465,0.0,-7.14990234375,66.92213,-1.089958117870459,18.667675018310547,19.586257934570312,127.8349838256836,-43.42566680908203,66.92213,0.0,,,,,,51.64038193214008,,,,,,,,,,,,,,,,,,,,,-2.5241886686092316,,,,,,,,,,,,,,,,,,,,
4.879454000000003,140.60787963867188,0.8084365095237734,0.24085543677521748,0.0,-7.169742584228516,66.962289,-1.0999064946068264,18.634798049926758,19.649206161499023,128.617919921875,-43.70906448364258,66.962289,0.0,,,,,,51.640374898864664,,,,,,,,,,,,,,,,,,,,,-2.5241778812597895,,,,,,,,,,,,,,,,,,,,
4.919614000000003,141.35067749023438,0.7979645340118074,0.24015730507441974,0.0,-7.167585849761963,67.002449,-1.100953692158023,18.52991485595703,19.72179412841797,129.40341186523438,-43.99348068237305,67.002449,0.0,,,,,,51.64036784262955,,,,,,,,,,,,,,,,,,,,,-2.5241671294752943,,,,,,,,,,,,,,,,,,,,
4.9596639999999965,142.0879364013672,0.7829547024446563,0.2415535684760152,0.0,-7.229355335235596,67.04249899999999,-1.1058406140636072,18.358522415161133,19.932781219482422,130.19517517089844,-44.27935028076172,67.04249899999999,0.0,,,,,,51.6403607300575,,,,,,,,,,,,,,,,,,,,,-2.5241564578736138,,,,,,,,,,,,,,,,,,,,
5.000001000000005,142.81785583496094,0.7712609964562942,0.24068090385001803,0.0,-7.286645412445068,67.082836,-1.1086331408667982,18.141754150390625,20.097549438476562,130.99415588378906,-44.56774139404297,67.082836,0.0,,,,,,51.640353552650005,,,,,,,,,,,,,,,,,,,,,-2.5241458925181512,,,,,,,,,,,,,,,,,,,,
5.039282000000007,143.53762817382812,0.7564256978143424,0.24137903555081577,0.0,-7.376563549041748,67.122117,-1.103397153110815,17.865259170532227,20.377845764160156,131.80284118652344,-44.85951614379883,67.122117,0.0,,,,,,51.64034628806419,,,,,,,,,,,,,,,,,,,,,-2.524135474050552,,,,,,,,,,,,,,,,,,,,
5.0793350000000075,144.24830627441406,0.7461282552275759,0.23911010752322315,0.0,-7.382726192474365,67.16217,-1.0999064946068264,17.552406311035156,20.65732192993164,132.62269592285156,-45.15273666381836,67.16217,0.0,,,,,,51.64033892314106,,,,,,,,,,,,,,,,,,,,,-2.524125187231179,,,,,,,,,,,,,,,,,,,,
5.119462000000006,144.94525146484375,0.7332128187628179,0.23788837704682714,0.0,-7.4752678871154785,67.202297,-1.1023499555596186,17.199880599975586,20.99943733215332,133.45565795898438,-45.448387145996094,67.202297,0.0,,,,,,51.640331440472366,,,,,,,,,,,,,,,,,,,,,-2.524115099206202,,,,,,,,,,,,,,,,,,,,
5.159121000000006,145.62930297851562,0.7250097712784445,0.23527038316883564,0.0,-7.471865177154541,67.241956,-1.104618883587211,16.90731430053711,21.2530460357666,134.30001831054688,-45.74586486816406,67.241956,0.0,,,,,,51.64032385541027,,,,,,,,,,,,,,,,,,,,,-2.5241051978268807,,,,,,,,,,,,,,,,,,,,
5.199885000000002,146.3016357421875,0.7145377957664785,0.23439771854283845,0.0,-7.513718128204346,67.28272,-1.1110766018195901,16.623876571655273,21.51790428161621,135.15533447265625,-46.044532775878906,67.28272,0.0,,,,,,51.64031617192989,,,,,,,,,,,,,,,,,,,,,-2.5240954660857953,,,,,,,,,,,,,,,,,,,,
5.239122000000002,146.9629364013672,0.7070328799829029,0.23282692221604356,0.0,-7.525031089782715,67.321957,-1.11421819447318,16.350204467773438,21.734540939331055,136.01954650878906,-46.34406280517578,67.321957,0.0,,,,,,51.64030840853604,,,,,,,,,,,,,,,,,,,,,-2.5240858940427793,,,,,,,,,,,,,,,,,,,,
5.279452999999997,147.60833740234375,0.696211838620538,0.2324778563656447,0.0,-7.579826831817627,67.36228799999999,-1.1140436615479805,16.05015754699707,21.994176864624023,136.8997344970703,-46.64733123779297,67.36228799999999,0.0,,,,,,51.64030050162695,,,,,,,,,,,,,,,,,,,,,-2.5240765521592046,,,,,,,,,,,,,,,,,,,,
5.319626000000007,148.24375915527344,0.6888814557621619,0.23020892833805207,0.0,-7.5431694984436035,67.402461,-1.1075859433156015,15.826920509338379,22.183271408081055,137.78761291503906,-46.950538635253906,67.402461,0.0,,,,,,51.64029252563315,,,,,,,,,,,,,,,,,,,,,-2.5240673547329067,,,,,,,,,,,,,,,,,,,,
5.359099000000008,148.87094116210938,0.6784094802501959,0.22951079663725435,0.0,-7.506091594696045,67.441934,-1.100953692158023,15.632711410522461,22.361909866333008,138.68304443359375,-47.25264358520508,67.441934,0.0,,,,,,51.64028448178829,,,,,,,,,,,,,,,,,,,,,-2.5240582765843094,,,,,,,,,,,,,,,,,,,,
5.399498999999999,149.49075317382812,0.6700318998406232,0.22898719786165603,0.0,-7.473118305206299,67.482334,-1.094845039776043,15.426170349121094,22.529611587524414,139.5840606689453,-47.55274200439453,67.482334,0.0,,,,,,51.64027638777479,,,,,,,,,,,,,,,,,,,,,-2.524049305122806,,,,,,,,,,,,,,,,,,,,
5.439228000000007,150.10211181640625,0.6581636609270617,0.22968532956245377,0.0,-7.455969333648682,67.522063,-1.0927506446736497,15.2222900390625,22.691408157348633,140.49224853515625,-47.8525505065918,67.522063,0.0,,,,,,51.640268229337046,,,,,,,,,,,,,,,,,,,,,-2.524040456031006,,,,,,,,,,,,,,,,,,,,
5.479983999999995,150.70343017578125,0.646993553714298,0.2288126649364566,0.0,-7.391030788421631,67.56281899999999,-1.0927506446736497,15.06055736541748,22.837186813354492,141.40757751464844,-48.1517333984375,67.56281899999999,0.0,,,,,,51.64026000674922,,,,,,,,,,,,,,,,,,,,,-2.5240317522796127,,,,,,,,,,,,,,,,,,,,
5.5200749999999985,151.29800415039062,0.6337290513991412,0.22968532956245377,0.0,-7.356398582458496,67.60291,-1.0910053154216555,14.860020637512207,22.98557472229004,142.32882690429688,-48.4494514465332,67.60291,0.0,,,,,,51.64025173097715,,,,,,,,,,,,,,,,,,,,,-2.524023146159593,,,,,,,,,,,,,,,,,,,,
5.559536999999999,151.8852081298828,0.6209881478595825,0.2307325271136504,0.0,-7.341259002685547,67.642372,-1.090830782496456,14.66712474822998,23.148757934570312,143.25534057617188,-48.7451286315918,67.642372,0.0,,,,,,51.64024340791494,,,,,,,,,,,,,,,,,,,,,-2.524014646726409,,,,,,,,,,,,,,,,,,,,
5.599650000000004,152.46449279785156,0.6077236455444256,0.23212879051524585,0.0,-7.3467535972595215,67.682485,-1.090481716646057,14.444350242614746,23.288721084594727,144.18807983398438,-49.04085159301758,67.682485,0.0,,,,,,51.640235028927016,,,,,,,,,,,,,,,,,,,,,-2.5240062619318566,,,,,,,,,,,,,,,,,,,,
5.639316000000001,153.03475952148438,0.5942846103040692,0.23265238929084414,0.0,-7.349283695220947,67.722151,-1.092052512972852,14.200508117675781,23.484712600708008,145.12673950195312,-49.336143493652344,67.722151,0.0,,,,,,51.640226596754836,,,,,,,,,,,,,,,,,,,,,-2.52399800767858,,,,,,,,,,,,,,,,,,,,
5.679465,153.60870361328125,0.5797983775125163,0.23108159296404923,0.0,-7.2833967208862305,67.7623,-1.096939434878436,13.964600563049316,23.64841651916504,146.09756469726562,-49.63901901245117,67.7623,0.0,,,,,,51.640217875633134,,,,,,,,,,,,,,,,,,,,,-2.523989700212307,,,,,,,,,,,,,,,,,,,,
5.719682999999996,154.1588897705078,0.5658357434965616,0.22951079663725435,0.0,-7.225613594055176,67.80251799999999,-1.1023499555596186,13.692207336425781,23.867536544799805,147.0514678955078,-49.931312561035156,67.80251799999999,0.0,,,,,,51.6402093065252,,,,,,,,,,,,,,,,,,,,,-2.52398173663992,,,,,,,,,,,,,,,,,,,,
5.759120000000003,154.69859313964844,0.5511749777798093,0.22776546738526002,0.0,-7.15904426574707,67.841955,-1.1100294042683936,13.417762756347656,24.055910110473633,148.0136260986328,-50.22105026245117,67.841955,0.0,,,,,,51.64020066326086,,,,,,,,,,,,,,,,,,,,,-2.5239739248134474,,,,,,,,,,,,,,,,,,,,
5.799460000000003,155.2266082763672,0.5366887449882564,0.2272418686096617,0.0,-7.125265598297119,67.882295,-1.1128219310715846,13.091897964477539,24.30077362060547,148.98353576660156,-50.50829315185547,67.882295,0.0,,,,,,51.64019195036353,,,,,,,,,,,,,,,,,,,,,-2.5239662821815205,,,,,,,,,,,,,,,,,,,,
5.839187000000003,155.7417755126953,0.5234242426730994,0.22584560520806624,0.0,-7.087719440460205,67.922022,-1.116661655425972,12.760311126708984,24.5059871673584,149.96249389648438,-50.794281005859375,67.922022,0.0,,,,,,51.64018315618201,,,,,,,,,,,,,,,,,,,,,-2.523958825530942,,,,,,,,,,,,,,,,,,,,
5.879336000000002,156.24008178710938,0.509112542806746,0.22444934180647078,0.0,-7.079820156097412,67.962171,-1.116661655425972,12.378449440002441,24.77863883972168,150.9520721435547,-51.07952117919922,67.962171,0.0,,,,,,51.640174266597796,,,,,,,,,,,,,,,,,,,,,-2.5239516129517185,,,,,,,,,,,,,,,,,,,,
5.919502999999999,156.72422790527344,0.4965461721923867,0.22200588085367873,0.0,-6.999192714691162,68.002338,-1.115439924949576,12.032569885253906,24.993938446044922,151.9513397216797,-51.36311340332031,68.002338,0.0,,,,,,51.64016528997234,,,,,,,,,,,,,,,,,,,,,-2.5239446053489742,,,,,,,,,,,,,,,,,,,,
5.959638000000005,157.19459533691406,0.48258353817643207,0.21938788697568723,0.0,-6.926960468292236,68.042473,-1.1171852542015703,11.656681060791016,25.27347183227539,152.9598846435547,-51.642940521240234,68.042473,0.0,,,,,,51.6401562300066,,,,,,,,,,,,,,,,,,,,,-2.5239377972006407,,,,,,,,,,,,,,,,,,,,
6.000012000000005,157.65138244628906,0.4705407663376713,0.21589722847169854,0.0,-6.798994541168213,68.082847,-1.12346843950875,11.333072662353516,25.47483253479004,153.9778289794922,-51.918766021728516,68.082847,0.0,,,,,,51.640147085604,,,,,,,,,,,,,,,,,,,,,-2.5239311856353552,,,,,,,,,,,,,,,,,,,,
6.039116,158.0948486328125,0.45640359939651715,0.21415189921970423,0.0,-6.734499454498291,68.121951,-1.1301006906663285,10.974034309387207,25.73162841796875,155.00462341308594,-52.190303802490234,68.121951,0.0,,,,,,51.64013786169916,,,,,,,,,,,,,,,,,,,,,-2.523924766897964,,,,,,,,,,,,,,,,,,,,
6.079451999999996,158.51980590820312,0.4447098934081552,0.21223203704251048,0.0,-6.644111633300781,68.16228699999999,-1.1335913491703171,10.654441833496094,25.906553268432617,156.0421142578125,-52.459068298339844,68.16228699999999,0.0,,,,,,51.64012854170626,,,,,,,,,,,,,,,,,,,,,-2.5239186160856706,,,,,,,,,,,,,,,,,,,,
6.1196430000000035,158.93218994140625,0.4300491276914028,0.21170843826691219,0.0,-6.5968852043151855,68.202478,-1.1365584088987075,10.30183219909668,26.145021438598633,157.08740234375,-52.72484588623047,68.202478,0.0,,,,,,51.640119151669154,,,,,,,,,,,,,,,,,,,,,-2.5239126472778732,,,,,,,,,,,,,,,,,,,,
6.159265999999995,159.33201599121094,0.41783182292744253,0.2097885760897184,0.0,-6.524170875549316,68.24210099999999,-1.1386528040011006,9.980213165283203,26.306123733520508,158.1399688720703,-52.987937927246094,68.24210099999999,0.0,,,,,,51.6401096962483,,,,,,,,,,,,,,,,,,,,,-2.523906860253378,,,,,,,,,,,,,,,,,,,,
6.199892999999996,159.71849060058594,0.4014257279586958,0.2092649773141201,0.0,-6.5089430809021,68.28272799999999,-1.1362093430483085,9.610806465148926,26.533113479614258,159.20016479492188,-53.249454498291016,68.28272799999999,0.0,,,,,,51.640100172291035,,,,,,,,,,,,,,,,,,,,,-2.523901266497589,,,,,,,,,,,,,,,,,,,,
6.239115000000005,160.0907745361328,0.3876376268679406,0.20699604928652748,0.0,-6.442835807800293,68.32195,-1.1314969540679238,9.218293190002441,26.721214294433594,160.26792907714844,-53.50868606567383,68.32195,0.0,,,,,,51.64009058034565,,,,,,,,,,,,,,,,,,,,,-2.523895878158326,,,,,,,,,,,,,,,,,,,,
6.279458999999996,160.44097900390625,0.37053340019839615,0.20629791758572977,0.0,-6.454936504364014,68.36229399999999,-1.1287044272647329,8.71932315826416,26.97783088684082,161.3480682373047,-53.767024993896484,68.36229399999999,0.0,,,,,,51.64008087723419,,,,,,,,,,,,,,,,,,,,,-2.523890809428351,,,,,,,,,,,,,,,,,,,,
6.319528999999996,160.7718505859375,0.3569198320328404,0.20542525295973257,0.0,-6.506613731384277,68.40236399999999,-1.1321950857687217,8.188541412353516,27.201332092285156,162.43650817871094,-54.026187896728516,68.40236399999999,0.0,,,,,,51.64007109955512,,,,,,,,,,,,,,,,,,,,,-2.5238860205487255,,,,,,,,,,,,,,,,,,,,
6.359108999999997,161.082275390625,0.34033920413889424,0.20577431881013145,0.0,-6.608580112457275,68.44194399999999,-1.1321950857687217,7.683263778686523,27.409727096557617,163.53353881835938,-54.28936004638672,68.44194399999999,0.0,,,,,,51.64006124470404,,,,,,,,,,,,,,,,,,,,,-2.52388152764305,,,,,,,,,,,,,,,,,,,,
6.399522999999995,161.37489318847656,0.32585297134734137,0.20367992370773827,0.0,-6.625432014465332,68.48235799999999,-1.1318460199183227,7.22465705871582,27.602357864379883,164.63729858398438,-54.55428695678711,68.48235799999999,0.0,,,,,,51.64005132940385,,,,,,,,,,,,,,,,,,,,,-2.5238772924995194,,,,,,,,,,,,,,,,,,,,
6.439257000000005,161.6488037109375,0.3087487446777969,0.20158552860534507,0.0,-6.645994663238525,68.522092,-1.1391764027766988,6.738723278045654,27.797636032104492,165.74900817871094,-54.82025146484375,68.522092,0.0,,,,,,51.64004134268871,,,,,,,,,,,,,,,,,,,,,-2.523873328149964,,,,,,,,,,,,,,,,,,,,
6.479987000000001,161.89785766601562,0.29216811678385074,0.19861846887695472,0.0,-6.670567989349365,68.562822,-1.1540117014186508,6.1995954513549805,28.00860595703125,166.8691864013672,-55.088497161865234,68.562822,0.0,,,,,,51.64003127989815,,,,,,,,,,,,,,,,,,,,,-2.5238697236056526,,,,,,,,,,,,,,,,,,,,
6.520066000000007,162.12586975097656,0.273318560862312,0.19565140914856435,0.0,-6.711673736572266,68.602901,-1.169021532985802,5.6478800773620605,28.194229125976562,167.99732971191406,-55.358177185058594,68.602901,0.0,,,,,,51.64002114555558,,,,,,,,,,,,,,,,,,,,,-2.5238664236482835,,,,,,,,,,,,,,,,,,,,
6.559677000000001,162.3335723876953,0.2553416695667704,0.19355701404617115,0.0,-6.737110614776611,68.642512,-1.173908454891386,5.148466110229492,28.369646072387695,169.13168334960938,-55.62896728515625,68.642512,0.0,,,,,,51.64001095542436,,,,,,,,,,,,,,,,,,,,,-2.523863417675028,,,,,,,,,,,,,,,,,,,,
6.599950999999997,162.52395629882812,0.23806290997202656,0.19128808601857852,0.0,-6.6632561683654785,68.682786,-1.1810643048245628,4.716195106506348,28.50571060180664,170.27224731445312,-55.89833450317383,68.682786,0.0,,,,,,51.640000709504505,,,,,,,,,,,,,,,,,,,,,-2.5238606623949256,,,,,,,,,,,,,,,,,,,,
6.639424999999996,162.69595336914062,0.21938788697568723,0.18919369091618532,0.0,-6.657986164093018,68.72225999999999,-1.1906636157105317,4.17325496673584,28.69431495666504,171.41844177246094,-56.16542053222656,68.72225999999999,0.0,,,,,,51.63999041300477,,,,,,,,,,,,,,,,,,,,,-2.523858173268534,,,,,,,,,,,,,,,,,,,,
6.679442999999999,162.8411865234375,0.20158552860534507,0.187448361664191,0.0,-6.640931129455566,68.762278,-1.1957250705413152,3.6105010509490967,28.848291397094727,172.5757293701172,-56.43489074707031,68.762278,0.0,,,,,,51.63998001685309,,,,,,,,,,,,,,,,,,,,,-2.52385607155651,,,,,,,,,,,,,,,,,,,,
6.7196910000000045,162.96334838867188,0.18343410438460403,0.18657569703819382,0.0,-6.688307762145996,68.802526,-1.2014846570728965,2.9749915599823,29.036727905273438,173.7389373779297,-56.70408248901367,68.802526,0.0,,,,,,51.639969567517156,,,,,,,,,,,,,,,,,,,,,-2.5238543038053707,,,,,,,,,,,,,,,,,,,,
6.759262,163.0650177001953,0.16755160819145562,0.18535396656179778,0.0,-6.650001049041748,68.842097,-1.192059879112127,2.526573419570923,29.141849517822266,174.9073486328125,-56.97380828857422,68.842097,0.0,,,,,,51.63995907143938,,,,,,,,,,,,,,,,,,,,,-2.5238528326873424,,,,,,,,,,,,,,,,,,,,
6.799421000000002,163.1493377685547,0.15027284859671178,0.18465583486100007,0.0,-6.599864482879639,68.882256,-1.1885692206081384,2.057436227798462,29.291872024536133,176.08033752441406,-57.24043273925781,68.882256,0.0,,,,,,51.63994853423976,,,,,,,,,,,,,,,,,,,,,-2.523851612702499,,,,,,,,,,,,,,,,,,,,
6.839262999999995,163.2176513671875,0.13526301702956053,0.18343410438460403,0.0,-6.529322147369385,68.92209799999999,-1.1856021608797482,1.6704679727554321,29.37738800048828,177.25753784179688,-57.50477600097656,68.92209799999999,0.0,,,,,,51.639937959208034,,,,,,,,,,,,,,,,,,,,,-2.523850624413851,,,,,,,,,,,,,,,,,,,,
6.8794810000000055,163.26527404785156,0.11868238913561441,0.18291050560900574,0.0,-6.520605564117432,68.962316,-1.1810643048245628,1.2734968662261963,29.491134643554688,178.4391632080078,-57.77086639404297,68.962316,0.0,,,,,,51.639927344425196,,,,,,,,,,,,,,,,,,,,,-2.523849935628714,,,,,,,,,,,,,,,,,,,,
6.919508999999998,163.3013153076172,0.10576695267085637,0.1816887751326097,0.0,-6.436517715454102,69.002344,-1.175130185367782,1.0375206470489502,29.537630081176758,179.62335205078125,-58.03430938720703,69.002344,0.0,,,,,,51.639916706614116,,,,,,,,,,,,,,,,,,,,,-2.5238494144860946,,,,,,,,,,,,,,,,,,,,
6.959611000000002,163.33096313476562,0.08918632477691024,0.18011797880581482,0.0,-6.334447860717773,69.042446,-1.16657807203301,0.8833327889442444,29.635507583618164,180.81007385253906,-58.29354476928711,69.042446,0.0,,,,,,51.63990604604895,,,,,,,,,,,,,,,,,,,,,-2.523848985889781,,,,,,,,,,,,,,,,,,,,
6.999918000000001,163.35426330566406,0.07487462491055674,0.17627825445142728,0.0,-6.183456897735596,69.082753,-1.1660544732574116,0.6242819428443909,29.700708389282227,181.99916076660156,-58.54678726196289,69.082753,0.0,,,,,,51.63989536423749,,,,,,,,,,,,,,,,,,,,,-2.523848649177018,,,,,,,,,,,,,,,,,,,,
7.039102000000007,163.36322021484375,0.055326937288220246,0.1741838593490341,0.0,-6.175472259521484,69.121937,-1.1698941976117991,0.18014797568321228,29.808191299438477,183.1916961669922,-58.796974182128906,69.121937,0.0,,,,,,51.639884651447574,,,,,,,,,,,,,,,,,,,,,-2.5238485200845058,,,,,,,,,,,,,,,,,,,,
7.0794150000000045,163.35629272460938,0.04014257279586958,0.17034413499464657,0.0,-6.094441890716553,69.16225,-1.1704177963873974,-0.20843291282653809,29.884763717651367,184.38905334472656,-59.05023193359375,69.16225,0.0,,,,,,51.639873895342646,,,,,,,,,,,,,,,,,,,,,-2.523848620920678,,,,,,,,,,,,,,,,,,,,
7.119610999999999,163.33535766601562,0.022689280275926284,0.1668534764906579,0.0,-6.010985851287842,69.202446,-1.1747811195173832,-0.5375618934631348,29.972087860107422,185.58956909179688,-59.29939270019531,69.202446,0.0,,,,,,51.639863110863644,,,,,,,,,,,,,,,,,,,,,-2.523848924517506,,,,,,,,,,,,,,,,,,,,
7.1591629999999995,163.302978515625,0.008028514559173916,0.1624901533606721,0.0,-5.885235786437988,69.241998,-1.181587903600161,-0.8427996039390564,30.033802032470703,186.79205322265625,-59.54324722290039,69.241998,0.0,,,,,,51.63985230870224,,,,,,,,,,,,,,,,,,,,,-2.523849393768033,,,,,,,,,,,,,,,,,,,,
7.199904999999994,163.2584228515625,6.273236930443219,0.15917402778188283,0.0,-5.772025108337402,69.28273999999999,-1.1887437535333378,-1.1492807865142822,30.108154296875,187.99720764160156,-59.78211212158203,69.28273999999999,0.0,,,,,,51.639841482553095,,,,,,,,,,,,,,,,,,,,,-2.5238500392742536,,,,,,,,,,,,,,,,,,,,
7.239273000000004,163.20294189453125,6.25770350010047,0.1551597705022959,0.0,-5.64296817779541,69.322108,-1.1931070766633236,-1.4551628828048706,30.16654396057129,189.20420837402344,-60.01503372192383,69.322108,0.0,,,,,,51.639830639818136,,,,,,,,,,,,,,,,,,,,,-2.5238508429242765,,,,,,,,,,,,,,,,,,,,
7.279467000000004,163.13400268554688,6.2397266088049275,0.15236724369910498,0.0,-5.547879695892334,69.362302,-1.1964232022421128,-1.8134078979492188,30.226106643676758,190.41307067871094,-60.24949645996094,69.362302,0.0,,,,,,51.63981978036029,,,,,,,,,,,,,,,,,,,,,-2.523851841382482,,,,,,,,,,,,,,,,,,,,
7.319539999999996,163.051513671875,6.223844112611779,0.1488765851951163,0.0,-5.428478717803955,69.40237499999999,-1.1978194656437082,-2.2005743980407715,30.27879524230957,191.62335205078125,-60.47831726074219,69.40237499999999,0.0,,,,,,51.63980890815468,,,,,,,,,,,,,,,,,,,,,-2.5238530359737443,,,,,,,,,,,,,,,,,,,,
7.3592609999999965,162.95318603515625,6.206390820091836,0.1457349925415265,0.0,-5.3069281578063965,69.44209599999999,-1.2035790521752896,-2.5896236896514893,30.324989318847656,192.8358612060547,-60.70155334472656,69.44209599999999,0.0,,,,,,51.63979801593643,,,,,,,,,,,,,,,,,,,,,-2.523854459828844,,,,,,,,,,,,,,,,,,,,
7.399451000000006,162.8399200439453,6.190857389749086,0.14189526818713902,0.0,-5.181712627410889,69.482286,-1.2124802313604608,-2.999048948287964,30.38113784790039,194.04969787597656,-60.918357849121094,69.482286,0.0,,,,,,51.63978711179284,,,,,,,,,,,,,,,,,,,,,-2.5238560999158492,,,,,,,,,,,,,,,,,,,,
7.439095999999999,162.70980834960938,6.174102228929941,0.13805554383275148,0.0,-5.069404602050781,69.521931,-1.2245230031992216,-3.42071795463562,30.407299041748047,195.26539611816406,-61.129905700683594,69.521931,0.0,,,,,,51.63977619092637,,,,,,,,,,,,,,,,,,,,,-2.5238579838436253,,,,,,,,,,,,,,,,,,,,
7.480044999999997,162.5587615966797,6.157696133961194,0.1340412865531645,0.0,-4.963481903076172,69.56287999999999,-1.2348204457859882,-3.920938491821289,30.441795349121094,196.5110626220703,-61.347007751464844,69.56287999999999,0.0,,,,,,51.63976500084886,,,,,,,,,,,,,,,,,,,,,-2.523860170818293,,,,,,,,,,,,,,,,,,,,
7.520078000000005,162.39080810546875,6.139719242665652,0.1303760951239764,0.0,-4.8667378425598145,69.602913,-1.2414526969435666,-4.421002388000488,30.45517921447754,197.72743225097656,-61.55420684814453,69.602913,0.0,,,,,,51.63975407395119,,,,,,,,,,,,,,,,,,,,,-2.5238626025022906,,,,,,,,,,,,,,,,,,,,
7.559638999999997,162.20362854003906,6.123487680622105,0.12671090369478832,0.0,-4.746184825897217,69.64247399999999,-1.2480849481011451,-4.939320087432861,30.475854873657227,198.9441680908203,-61.75529479980469,69.64247399999999,0.0,,,,,,51.63974314376376,,,,,,,,,,,,,,,,,,,,,-2.523865312481525,,,,,,,,,,,,,,,,,,,,
7.599477999999998,161.99502563476562,6.105510789326564,0.12409290981679684,0.0,-4.665351867675781,69.682313,-1.2529718700067294,-5.474113464355469,30.45804214477539,200.16114807128906,-61.9518928527832,69.682313,0.0,,,,,,51.639732211383176,,,,,,,,,,,,,,,,,,,,,-2.523868332561014,,,,,,,,,,,,,,,,,,,,
7.639266999999997,161.76394653320312,6.088232029731819,0.1228711793404008,0.0,-4.636594772338867,69.72210199999999,-1.2592550553139088,-6.095914363861084,30.438905715942383,201.37704467773438,-62.144744873046875,69.72210199999999,0.0,,,,,,51.639721288734755,,,,,,,,,,,,,,,,,,,,,-2.523871677979943,,,,,,,,,,,,,,,,,,,,
7.679466999999995,161.5073699951172,6.070778737211876,0.12147491593880534,0.0,-4.600796699523926,69.76230199999999,-1.2655382406210884,-6.652539253234863,30.386781692504883,202.5894317626953,-62.34233093261719,69.76230199999999,0.0,,,,,,51.63971039761309,,,,,,,,,,,,,,,,,,,,,-2.523875392469189,,,,,,,,,,,,,,,,,,,,
7.719665999999997,161.2279052734375,6.052976378841534,0.11903145498601328,0.0,-4.574146747589111,69.80250099999999,-1.2728686234794646,-7.276953220367432,30.358959197998047,203.80007934570312,-62.53696060180664,69.80250099999999,0.0,,,,,,51.63969952211772,,,,,,,,,,,,,,,,,,,,,-2.5238794382605736,,,,,,,,,,,,,,,,,,,,
